{
"type": "FeatureCollection",
"name": "ATP_Counter",
"crs": { "type": "name", "properties": { "name": "urn:ogc:def:crs:OGC:1.3:CRS84" } },
"features": [
{ "type": "Feature", "properties": { "OBJECTID": 1, "KGISATP_CounterID": 1, "DepartmentCode": "1", "KGISWardID": null, "KGISVillageID": 15149, "KGISCode": null, "ATP_CounterName": "S3-AUSTIN TOWN", "KGISSectionID": 104 }, "geometry": { "type": "Point", "coordinates": [ 77.614889992346392, 12.957819880348387 ] } },
{ "type": "Feature", "properties": { "OBJECTID": 10, "KGISATP_CounterID": 10, "DepartmentCode": "10", "KGISWardID": null, "KGISVillageID": 15071, "KGISCode": null, "ATP_CounterName": "S2-WILSON GARDON", "KGISSectionID": 76 }, "geometry": { "type": "Point", "coordinates": [ 77.605149992574283, 12.952779880735417 ] } },
{ "type": "Feature", "properties": { "OBJECTID": 100, "KGISATP_CounterID": 100, "DepartmentCode": "100", "KGISWardID": null, "KGISVillageID": 15081, "KGISCode": null, "ATP_CounterName": "W2-CHAMRAJPET", "KGISSectionID": 146 }, "geometry": { "type": "Point", "coordinates": [ 77.564499993354772, 12.961269882803307 ] } },
{ "type": "Feature", "properties": { "OBJECTID": 101, "KGISATP_CounterID": 101, "DepartmentCode": "101", "KGISWardID": null, "KGISVillageID": 30092, "KGISCode": null, "ATP_CounterName": "W2-GANDHI BAZAR", "KGISSectionID": 168 }, "geometry": { "type": "Point", "coordinates": [ 77.571929992907954, 12.942339882938223 ] } },
{ "type": "Feature", "properties": { "OBJECTID": 102, "KGISATP_CounterID": 102, "DepartmentCode": "102", "KGISWardID": null, "KGISVillageID": 15084, "KGISCode": null, "ATP_CounterName": "W6-BYATARAYANAPURA", "KGISSectionID": 126 }, "geometry": { "type": "Point", "coordinates": [ 77.540159993259337, 12.951399884865101 ] } },
{ "type": "Feature", "properties": { "OBJECTID": 103, "KGISATP_CounterID": 103, "DepartmentCode": "103", "KGISWardID": null, "KGISVillageID": 15131, "KGISCode": null, "ATP_CounterName": "W6-TIMBER YARD LAYOUT", "KGISSectionID": 172 }, "geometry": { "type": "Point", "coordinates": [ 77.551879993485926, 12.95436988384688 ] } },
{ "type": "Feature", "properties": { "OBJECTID": 104, "KGISATP_CounterID": 104, "DepartmentCode": "104", "KGISWardID": null, "KGISVillageID": 15559, "KGISCode": null, "ATP_CounterName": "W6-NAYANDAHALLY", "KGISSectionID": 96 }, "geometry": { "type": "Point", "coordinates": [ 77.529939993340008, 12.94662988521516 ] } },
{ "type": "Feature", "properties": { "OBJECTID": 105, "KGISATP_CounterID": 105, "DepartmentCode": "105", "KGISWardID": null, "KGISVillageID": 15582, "KGISCode": null, "ATP_CounterName": "W7-R R NAGAR", "KGISSectionID": 106 }, "geometry": { "type": "Point", "coordinates": [ 77.485019993582284, 12.911269888279856 ] } },
{ "type": "Feature", "properties": { "OBJECTID": 106, "KGISATP_CounterID": 106, "DepartmentCode": "106", "KGISWardID": null, "KGISVillageID": 15681, "KGISCode": null, "ATP_CounterName": "W7CHANNASANDRA", "KGISSectionID": 212 }, "geometry": { "type": "Point", "coordinates": [ 77.518509993664239, 12.902199886061727 ] } },
{ "type": "Feature", "properties": { "OBJECTID": 107, "KGISATP_CounterID": 107, "DepartmentCode": "107", "KGISWardID": null, "KGISVillageID": 15582, "KGISCode": null, "ATP_CounterName": "K1-KENGERI", "KGISSectionID": 106 }, "geometry": { "type": "Point", "coordinates": [ 77.487579993464863, 12.913489888215558 ] } },
{ "type": "Feature", "properties": { "OBJECTID": 108, "KGISATP_CounterID": 108, "DepartmentCode": "108", "KGISWardID": null, "KGISVillageID": 15586, "KGISCode": null, "ATP_CounterName": "K1-KUMBLUGODU", "KGISSectionID": 198 }, "geometry": { "type": "Point", "coordinates": [ 77.444629993819575, 12.871239890923048 ] } },
{ "type": "Feature", "properties": { "OBJECTID": 109, "KGISATP_CounterID": 109, "DepartmentCode": "109", "KGISWardID": null, "KGISVillageID": 15597, "KGISCode": null, "ATP_CounterName": "K1-RAMUHALLY", "KGISSectionID": 199 }, "geometry": { "type": "Point", "coordinates": [ 77.417989993376125, 12.907289891931706 ] } },
{ "type": "Feature", "properties": { "OBJECTID": 11, "KGISATP_CounterID": 11, "DepartmentCode": "11", "KGISWardID": null, "KGISVillageID": 15150, "KGISCode": null, "ATP_CounterName": "S2-S R NAGAR", "KGISSectionID": 150 }, "geometry": { "type": "Point", "coordinates": [ 77.590669992993583, 12.96750988135887 ] } },
{ "type": "Feature", "properties": { "OBJECTID": 110, "KGISATP_CounterID": 110, "DepartmentCode": "110", "KGISWardID": null, "KGISVillageID": 15459, "KGISCode": null, "ATP_CounterName": "K2-ANJANANAGARA", "KGISSectionID": 162 }, "geometry": { "type": "Point", "coordinates": [ 77.482929993831988, 12.975779888026803 ] } },
{ "type": "Feature", "properties": { "OBJECTID": 111, "KGISATP_CounterID": 111, "DepartmentCode": "111", "KGISWardID": null, "KGISVillageID": 15471, "KGISCode": null, "ATP_CounterName": "K2-ANDRAHALLY ", "KGISSectionID": 163 }, "geometry": { "type": "Point", "coordinates": [ 77.497169993046541, 13.009739886822221 ] } },
{ "type": "Feature", "properties": { "OBJECTID": 112, "KGISATP_CounterID": 112, "DepartmentCode": "112", "KGISWardID": null, "KGISVillageID": 15459, "KGISCode": null, "ATP_CounterName": "K2-HEROHALLY ", "KGISSectionID": 181 }, "geometry": { "type": "Point", "coordinates": [ 77.485449993426869, 12.989089887604232 ] } },
{ "type": "Feature", "properties": { "OBJECTID": 113, "KGISATP_CounterID": 113, "DepartmentCode": "113", "KGISWardID": null, "KGISVillageID": 15461, "KGISCode": null, "ATP_CounterName": "K2-DODDABIDARAKALLU", "KGISSectionID": 120 }, "geometry": { "type": "Point", "coordinates": [ 77.492239993689665, 13.036699887144691 ] } },
{ "type": "Feature", "properties": { "OBJECTID": 114, "KGISATP_CounterID": 114, "DepartmentCode": "114", "KGISWardID": null, "KGISVillageID": 15664, "KGISCode": null, "ATP_CounterName": "K3-KAGGALIPURA", "KGISSectionID": 86 }, "geometry": { "type": "Point", "coordinates": [ 77.508469993353074, 12.800409887438082 ] } },
{ "type": "Feature", "properties": { "OBJECTID": 115, "KGISATP_CounterID": 115, "DepartmentCode": "115", "KGISWardID": null, "KGISVillageID": 15592, "KGISCode": null, "ATP_CounterName": "K4-KST TOWN", "KGISSectionID": 187 }, "geometry": { "type": "Point", "coordinates": [ 77.492889993637775, 12.939579887352936 ] } },
{ "type": "Feature", "properties": { "OBJECTID": 116, "KGISATP_CounterID": 116, "DepartmentCode": "116", "KGISWardID": null, "KGISVillageID": 15592, "KGISCode": null, "ATP_CounterName": "K4-RR LAYOUT", "KGISSectionID": 187 }, "geometry": { "type": "Point", "coordinates": [ 77.493659993270995, 12.940689887457284 ] } },
{ "type": "Feature", "properties": { "OBJECTID": 117, "KGISATP_CounterID": 117, "DepartmentCode": "117", "KGISWardID": null, "KGISVillageID": 20953, "KGISCode": null, "ATP_CounterName": "NELAMANGALA", "KGISSectionID": null }, "geometry": { "type": "Point", "coordinates": [ 77.398779993270651, 13.0975598910805 ] } },
{ "type": "Feature", "properties": { "OBJECTID": 118, "KGISATP_CounterID": 118, "DepartmentCode": "118", "KGISWardID": null, "KGISVillageID": 20953, "KGISCode": null, "ATP_CounterName": "NELAMANGALA", "KGISSectionID": null }, "geometry": { "type": "Point", "coordinates": [ 77.398779993270651, 13.0975598910805 ] } },
{ "type": "Feature", "properties": { "OBJECTID": 119, "KGISATP_CounterID": 119, "DepartmentCode": "119", "KGISWardID": null, "KGISVillageID": 20301, "KGISCode": null, "ATP_CounterName": "DODDABALLAPURA", "KGISSectionID": 9 }, "geometry": { "type": "Point", "coordinates": [ 77.542459993009075, 13.311479881517263 ] } },
{ "type": "Feature", "properties": { "OBJECTID": 12, "KGISATP_CounterID": 12, "DepartmentCode": "12", "KGISWardID": null, "KGISVillageID": 15679, "KGISCode": null, "ATP_CounterName": "S5 - ISRO LAYOUT", "KGISSectionID": 140 }, "geometry": { "type": "Point", "coordinates": [ 77.557079992665891, 12.898479884557016 ] } },
{ "type": "Feature", "properties": { "OBJECTID": 120, "KGISATP_CounterID": 120, "DepartmentCode": "120", "KGISWardID": null, "KGISVillageID": 20273, "KGISCode": null, "ATP_CounterName": "DODDABALLAPURA O&M", "KGISSectionID": 9 }, "geometry": { "type": "Point", "coordinates": [ 77.542789993347455, 13.293299882032318 ] } },
{ "type": "Feature", "properties": { "OBJECTID": 121, "KGISATP_CounterID": 121, "DepartmentCode": "121", "KGISWardID": null, "KGISVillageID": 20535, "KGISCode": null, "ATP_CounterName": "TAVAREKERE", "KGISSectionID": null }, "geometry": { "type": "Point", "coordinates": [ 77.571729993111632, 13.374259880066367 ] } },
{ "type": "Feature", "properties": { "OBJECTID": 122, "KGISATP_CounterID": 122, "DepartmentCode": "122", "KGISWardID": null, "KGISVillageID": 21044, "KGISCode": null, "ATP_CounterName": "DABASPETE", "KGISSectionID": null }, "geometry": { "type": "Point", "coordinates": [ 77.240429994455752, 13.233049897869211 ] } },
{ "type": "Feature", "properties": { "OBJECTID": 123, "KGISATP_CounterID": 123, "DepartmentCode": "123", "KGISWardID": null, "KGISVillageID": 20095, "KGISCode": null, "ATP_CounterName": "DEVANAHALLY", "KGISSectionID": null }, "geometry": { "type": "Point", "coordinates": [ 77.713779992705554, 13.246369870736329 ] } },
{ "type": "Feature", "properties": { "OBJECTID": 124, "KGISATP_CounterID": 124, "DepartmentCode": "124", "KGISWardID": null, "KGISVillageID": 20222, "KGISCode": null, "ATP_CounterName": "VIJAYPURA", "KGISSectionID": null }, "geometry": { "type": "Point", "coordinates": [ 77.797369991977561, 13.298199863898613 ] } },
{ "type": "Feature", "properties": { "OBJECTID": 125, "KGISATP_CounterID": 125, "DepartmentCode": "125", "KGISWardID": null, "KGISVillageID": 20638, "KGISCode": null, "ATP_CounterName": "HOSAKOTE SDO", "KGISSectionID": 13 }, "geometry": { "type": "Point", "coordinates": [ 77.787099991711514, 13.072749866948973 ] } },
{ "type": "Feature", "properties": { "OBJECTID": 126, "KGISATP_CounterID": 126, "DepartmentCode": "126", "KGISWardID": null, "KGISVillageID": 21307, "KGISCode": null, "ATP_CounterName": "AVLAHALLY", "KGISSectionID": null }, "geometry": { "type": "Point", "coordinates": [ 77.732969992311922, 13.033399871824562 ] } },
{ "type": "Feature", "properties": { "OBJECTID": 127, "KGISATP_CounterID": 127, "DepartmentCode": "127", "KGISWardID": null, "KGISVillageID": 21324, "KGISCode": null, "ATP_CounterName": "DODDAGUBBI", "KGISSectionID": null }, "geometry": { "type": "Point", "coordinates": [ 77.671109992183716, 13.070749875952963 ] } },
{ "type": "Feature", "properties": { "OBJECTID": 128, "KGISATP_CounterID": 128, "DepartmentCode": "128", "KGISWardID": null, "KGISVillageID": 15363, "KGISCode": null, "ATP_CounterName": "VIDYANAGARA", "KGISSectionID": null }, "geometry": { "type": "Point", "coordinates": [ 77.623089992494201, 13.155779877704823 ] } },
{ "type": "Feature", "properties": { "OBJECTID": 129, "KGISATP_CounterID": 129, "DepartmentCode": "129", "KGISWardID": null, "KGISVillageID": 29683, "KGISCode": null, "ATP_CounterName": "MAGADI", "KGISSectionID": null }, "geometry": { "type": "Point", "coordinates": [ 77.226269994081363, 12.957289899592947 ] } },
{ "type": "Feature", "properties": { "OBJECTID": 13, "KGISATP_CounterID": 13, "DepartmentCode": "13", "KGISWardID": null, "KGISVillageID": 15694, "KGISCode": null, "ATP_CounterName": "S5-CHIKKALSANDRA", "KGISSectionID": 220 }, "geometry": { "type": "Point", "coordinates": [ 77.552269993411926, 12.911589884459266 ] } },
{ "type": "Feature", "properties": { "OBJECTID": 130, "KGISATP_CounterID": 130, "DepartmentCode": "130", "KGISWardID": null, "KGISVillageID": 29544, "KGISCode": null, "ATP_CounterName": "KUDUR", "KGISSectionID": null }, "geometry": { "type": "Point", "coordinates": [ 77.164979994837822, 13.10604990121041 ] } },
{ "type": "Feature", "properties": { "OBJECTID": 131, "KGISATP_CounterID": 131, "DepartmentCode": "131", "KGISWardID": null, "KGISVillageID": 29840, "KGISCode": null, "ATP_CounterName": "BIDADI", "KGISSectionID": null }, "geometry": { "type": "Point", "coordinates": [ 77.397189993874761, 12.802399893407912 ] } },
{ "type": "Feature", "properties": { "OBJECTID": 132, "KGISATP_CounterID": 132, "DepartmentCode": "132", "KGISWardID": null, "KGISVillageID": 29122, "KGISCode": null, "ATP_CounterName": "CHANNAPATNA", "KGISSectionID": 40 }, "geometry": { "type": "Point", "coordinates": [ 77.205159994250451, 12.65107990274333 ] } },
{ "type": "Feature", "properties": { "OBJECTID": 133, "KGISATP_CounterID": 133, "DepartmentCode": "133", "KGISWardID": null, "KGISVillageID": 29968, "KGISCode": null, "ATP_CounterName": "RAMNAGAR", "KGISSectionID": 24 }, "geometry": { "type": "Point", "coordinates": [ 77.283439994431873, 12.722079898902791 ] } },
{ "type": "Feature", "properties": { "OBJECTID": 134, "KGISATP_CounterID": 134, "DepartmentCode": "134", "KGISWardID": null, "KGISVillageID": 29321, "KGISCode": null, "ATP_CounterName": "KANAKAPURA", "KGISSectionID": 33 }, "geometry": { "type": "Point", "coordinates": [ 77.420999993802624, 12.538239894532294 ] } },
{ "type": "Feature", "properties": { "OBJECTID": 135, "KGISATP_CounterID": 135, "DepartmentCode": "135", "KGISWardID": null, "KGISVillageID": 29272, "KGISCode": null, "ATP_CounterName": "HAROHALLI", "KGISSectionID": null }, "geometry": { "type": "Point", "coordinates": [ 77.469799993775737, 12.680049890713248 ] } },
{ "type": "Feature", "properties": { "OBJECTID": 136, "KGISATP_CounterID": 136, "DepartmentCode": "136", "KGISWardID": null, "KGISVillageID": 21159, "KGISCode": null, "ATP_CounterName": "ANEKAL", "KGISSectionID": 20 }, "geometry": { "type": "Point", "coordinates": [ 77.698139992227325, 12.709199876322378 ] } },
{ "type": "Feature", "properties": { "OBJECTID": 137, "KGISATP_CounterID": 137, "DepartmentCode": "137", "KGISWardID": null, "KGISVillageID": 21159, "KGISCode": null, "ATP_CounterName": "JIGANI O&M ", "KGISSectionID": 20 }, "geometry": { "type": "Point", "coordinates": [ 77.696829992732773, 12.709039876611481 ] } },
{ "type": "Feature", "properties": { "OBJECTID": 138, "KGISATP_CounterID": 138, "DepartmentCode": "138", "KGISWardID": null, "KGISVillageID": 21159, "KGISCode": null, "ATP_CounterName": "BANNERGHATTA-JIGANI ", "KGISSectionID": 20 }, "geometry": { "type": "Point", "coordinates": [ 77.695369992715669, 12.71612987668305 ] } },
{ "type": "Feature", "properties": { "OBJECTID": 139, "KGISATP_CounterID": 139, "DepartmentCode": "139", "KGISWardID": null, "KGISVillageID": 14998, "KGISCode": null, "ATP_CounterName": "CHANDAPUR", "KGISSectionID": null }, "geometry": { "type": "Point", "coordinates": [ 77.706349992248406, 12.798579875573127 ] } },
{ "type": "Feature", "properties": { "OBJECTID": 14, "KGISATP_CounterID": 14, "DepartmentCode": "14", "KGISWardID": null, "KGISVillageID": 15711, "KGISCode": null, "ATP_CounterName": "S6-JP NAGAR", "KGISSectionID": 130 }, "geometry": { "type": "Point", "coordinates": [ 77.577959993009543, 12.907209882671523 ] } },
{ "type": "Feature", "properties": { "OBJECTID": 140, "KGISATP_CounterID": 140, "DepartmentCode": "140", "KGISWardID": null, "KGISVillageID": 14997, "KGISCode": null, "ATP_CounterName": "BOMMASANDRA", "KGISSectionID": null }, "geometry": { "type": "Point", "coordinates": [ 77.688379992342917, 12.818969876019832 ] } },
{ "type": "Feature", "properties": { "OBJECTID": 141, "KGISATP_CounterID": 141, "DepartmentCode": "141", "KGISWardID": null, "KGISVillageID": 14997, "KGISCode": null, "ATP_CounterName": "HEBGODI", "KGISSectionID": null }, "geometry": { "type": "Point", "coordinates": [ 77.683219992368876, 12.825789876550763 ] } },
{ "type": "Feature", "properties": { "OBJECTID": 142, "KGISATP_CounterID": 142, "DepartmentCode": "142", "KGISWardID": null, "KGISVillageID": 14990, "KGISCode": null, "ATP_CounterName": "ATTIBELE", "KGISSectionID": null }, "geometry": { "type": "Point", "coordinates": [ 77.771449992439287, 12.780829870892298 ] } },
{ "type": "Feature", "properties": { "OBJECTID": 143, "KGISATP_CounterID": 143, "DepartmentCode": "143", "KGISWardID": null, "KGISVillageID": 21296, "KGISCode": null, "ATP_CounterName": "SARJAPURA", "KGISSectionID": null }, "geometry": { "type": "Point", "coordinates": [ 77.785609991564428, 12.861059869159748 ] } },
{ "type": "Feature", "properties": { "OBJECTID": 144, "KGISATP_CounterID": 144, "DepartmentCode": "144", "KGISWardID": null, "KGISVillageID": 21256, "KGISCode": null, "ATP_CounterName": "O&M DHOMASANDRA", "KGISSectionID": null }, "geometry": { "type": "Point", "coordinates": [ 77.747379991756489, 12.881159871582122 ] } },
{ "type": "Feature", "properties": { "OBJECTID": 145, "KGISATP_CounterID": 145, "DepartmentCode": "145", "KGISWardID": null, "KGISVillageID": 15014, "KGISCode": null, "ATP_CounterName": "VEERSANDRA", "KGISSectionID": 81 }, "geometry": { "type": "Point", "coordinates": [ 77.666129992539467, 12.841099877690054 ] } },
{ "type": "Feature", "properties": { "OBJECTID": 146, "KGISATP_CounterID": 146, "DepartmentCode": "146", "KGISWardID": null, "KGISVillageID": 16268, "KGISCode": null, "ATP_CounterName": "KOLAR", "KGISSectionID": 36 }, "geometry": { "type": "Point", "coordinates": [ 78.119019989959682, 13.127459835136143 ] } },
{ "type": "Feature", "properties": { "OBJECTID": 147, "KGISATP_CounterID": 147, "DepartmentCode": "147", "KGISWardID": null, "KGISVillageID": null, "KGISCode": null, "ATP_CounterName": "SRINIVASAPURA", "KGISSectionID": null }, "geometry": { "type": "Point", "coordinates": [ 78.501639986845419, 13.560979779388944 ] } },
{ "type": "Feature", "properties": { "OBJECTID": 148, "KGISATP_CounterID": 148, "DepartmentCode": "148", "KGISWardID": null, "KGISVillageID": 30153, "KGISCode": null, "ATP_CounterName": "BAGEPALLI", "KGISSectionID": null }, "geometry": { "type": "Point", "coordinates": [ 77.79096999206665, 13.783549860851839 ] } },
{ "type": "Feature", "properties": { "OBJECTID": 149, "KGISATP_CounterID": 149, "DepartmentCode": "149", "KGISWardID": null, "KGISVillageID": 20257, "KGISCode": null, "ATP_CounterName": "CHIKKABALLAPUR URBAN", "KGISSectionID": 9 }, "geometry": { "type": "Point", "coordinates": [ 77.536739993110572, 13.299509882018439 ] } },
{ "type": "Feature", "properties": { "OBJECTID": 15, "KGISATP_CounterID": 15, "DepartmentCode": "15", "KGISWardID": null, "KGISVillageID": 15703, "KGISCode": null, "ATP_CounterName": "S6-KONANKUNTE", "KGISSectionID": 219 }, "geometry": { "type": "Point", "coordinates": [ 77.564329992807401, 12.892519883876437 ] } },
{ "type": "Feature", "properties": { "OBJECTID": 150, "KGISATP_CounterID": 150, "DepartmentCode": "150", "KGISWardID": null, "KGISVillageID": 25684, "KGISCode": null, "ATP_CounterName": "GOWRIBIDANUR", "KGISSectionID": 23 }, "geometry": { "type": "Point", "coordinates": [ 77.518679992964493, 13.609689881248242 ] } },
{ "type": "Feature", "properties": { "OBJECTID": 151, "KGISATP_CounterID": 151, "DepartmentCode": "151", "KGISWardID": null, "KGISVillageID": 15770, "KGISCode": null, "ATP_CounterName": "BANGARPETE", "KGISSectionID": 32 }, "geometry": { "type": "Point", "coordinates": [ 78.181229989375197, 12.989959829702505 ] } },
{ "type": "Feature", "properties": { "OBJECTID": 152, "KGISATP_CounterID": 152, "DepartmentCode": "152", "KGISWardID": null, "KGISVillageID": 16076, "KGISCode": null, "ATP_CounterName": "ROBERTSONPET", "KGISSectionID": 16 }, "geometry": { "type": "Point", "coordinates": [ 78.250309988873056, 12.97082982143527 ] } },
{ "type": "Feature", "properties": { "OBJECTID": 153, "KGISATP_CounterID": 153, "DepartmentCode": "153", "KGISWardID": null, "KGISVillageID": 16120, "KGISCode": null, "ATP_CounterName": "ANDORSONPET", "KGISSectionID": 5 }, "geometry": { "type": "Point", "coordinates": [ 78.270919988894889, 12.934099819447086 ] } },
{ "type": "Feature", "properties": { "OBJECTID": 154, "KGISATP_CounterID": 154, "DepartmentCode": "154", "KGISWardID": null, "KGISVillageID": 16659, "KGISCode": null, "ATP_CounterName": "MALUR", "KGISSectionID": null }, "geometry": { "type": "Point", "coordinates": [ 77.938999990985053, 13.005429854423138 ] } },
{ "type": "Feature", "properties": { "OBJECTID": 155, "KGISATP_CounterID": 155, "DepartmentCode": "155", "KGISWardID": null, "KGISVillageID": 17197, "KGISCode": null, "ATP_CounterName": "MULABAGLU", "KGISSectionID": 31 }, "geometry": { "type": "Point", "coordinates": [ 78.394839987974976, 13.164909800803471 ] } },
{ "type": "Feature", "properties": { "OBJECTID": 156, "KGISATP_CounterID": 156, "DepartmentCode": "156", "KGISWardID": null, "KGISVillageID": 30707, "KGISCode": null, "ATP_CounterName": "CHINTHAMANI", "KGISSectionID": 6 }, "geometry": { "type": "Point", "coordinates": [ 78.054179990701698, 13.39892983931713 ] } },
{ "type": "Feature", "properties": { "OBJECTID": 157, "KGISATP_CounterID": 157, "DepartmentCode": "157", "KGISWardID": null, "KGISVillageID": 31379, "KGISCode": null, "ATP_CounterName": "SHIDLAGATTA URBAN", "KGISSectionID": 35 }, "geometry": { "type": "Point", "coordinates": [ 77.863299991396516, 13.391089857708057 ] } },
{ "type": "Feature", "properties": { "OBJECTID": 158, "KGISATP_CounterID": 158, "DepartmentCode": "158", "KGISWardID": null, "KGISVillageID": 19626, "KGISCode": null, "ATP_CounterName": "CSD 1-PH COLONY", "KGISSectionID": 72 }, "geometry": { "type": "Point", "coordinates": [ 77.096969994505017, 13.375069902060293 ] } },
{ "type": "Feature", "properties": { "OBJECTID": 159, "KGISATP_CounterID": 159, "DepartmentCode": "159", "KGISWardID": null, "KGISVillageID": 19646, "KGISCode": null, "ATP_CounterName": "CSD 1-HANUMANTHAPURA", "KGISSectionID": 73 }, "geometry": { "type": "Point", "coordinates": [ 77.10158999458217, 13.338869901723323 ] } },
{ "type": "Feature", "properties": { "OBJECTID": 16, "KGISATP_CounterID": 16, "DepartmentCode": "16", "KGISWardID": null, "KGISVillageID": 15721, "KGISCode": null, "ATP_CounterName": "S9-KATRIGUPPE", "KGISSectionID": 113 }, "geometry": { "type": "Point", "coordinates": [ 77.560749992919369, 12.922819883799317 ] } },
{ "type": "Feature", "properties": { "OBJECTID": 160, "KGISATP_CounterID": 160, "DepartmentCode": "160", "KGISWardID": null, "KGISVillageID": 19646, "KGISCode": null, "ATP_CounterName": "CSD 1-CHICKPETE", "KGISSectionID": 72 }, "geometry": { "type": "Point", "coordinates": [ 77.096289995010409, 13.341219901866529 ] } },
{ "type": "Feature", "properties": { "OBJECTID": 161, "KGISATP_CounterID": 161, "DepartmentCode": "161", "KGISWardID": null, "KGISVillageID": 15481, "KGISCode": null, "ATP_CounterName": "TUMKUR CSD OFFICE", "KGISSectionID": 83 }, "geometry": { "type": "Point", "coordinates": [ 77.552199992849324, 12.993549883460123 ] } },
{ "type": "Feature", "properties": { "OBJECTID": 162, "KGISATP_CounterID": 162, "DepartmentCode": "162", "KGISWardID": null, "KGISVillageID": 19626, "KGISCode": null, "ATP_CounterName": "CITY 1- SIRA GATE", "KGISSectionID": 72 }, "geometry": { "type": "Point", "coordinates": [ 77.096969994505017, 13.375069902060293 ] } },
{ "type": "Feature", "properties": { "OBJECTID": 163, "KGISATP_CounterID": 163, "DepartmentCode": "163", "KGISWardID": null, "KGISVillageID": 19628, "KGISCode": null, "ATP_CounterName": "CSD 2-SS PURAM", "KGISSectionID": 75 }, "geometry": { "type": "Point", "coordinates": [ 77.097449994756914, 13.314639902418763 ] } },
{ "type": "Feature", "properties": { "OBJECTID": 164, "KGISATP_CounterID": 164, "DepartmentCode": "164", "KGISWardID": null, "KGISVillageID": 19646, "KGISCode": null, "ATP_CounterName": "CSD 2-SRS PURAM", "KGISSectionID": 69 }, "geometry": { "type": "Point", "coordinates": [ 77.108299994926313, 13.334189901680888 ] } },
{ "type": "Feature", "properties": { "OBJECTID": 165, "KGISATP_CounterID": 165, "DepartmentCode": "165", "KGISWardID": null, "KGISVillageID": 19596, "KGISCode": null, "ATP_CounterName": "CITY 2-GANGOTHRI NAGARA", "KGISSectionID": null }, "geometry": { "type": "Point", "coordinates": [ 77.108429994684656, 13.313159901756636 ] } },
{ "type": "Feature", "properties": { "OBJECTID": 166, "KGISATP_CounterID": 166, "DepartmentCode": "166", "KGISWardID": null, "KGISVillageID": 19646, "KGISCode": null, "ATP_CounterName": "TUMAKUR CSD-3", "KGISSectionID": 73 }, "geometry": { "type": "Point", "coordinates": [ 77.102189994831718, 13.342869902341675 ] } },
{ "type": "Feature", "properties": { "OBJECTID": 167, "KGISATP_CounterID": 167, "DepartmentCode": "167", "KGISWardID": null, "KGISVillageID": 19236, "KGISCode": null, "ATP_CounterName": "TIPTUR(SDO OFFICE)", "KGISSectionID": 28 }, "geometry": { "type": "Point", "coordinates": [ 76.462779996141208, 13.259509916675356 ] } },
{ "type": "Feature", "properties": { "OBJECTID": 168, "KGISATP_CounterID": 168, "DepartmentCode": "168", "KGISWardID": null, "KGISVillageID": 19936, "KGISCode": null, "ATP_CounterName": "TURUVEKERE", "KGISSectionID": null }, "geometry": { "type": "Point", "coordinates": [ 76.66767999606472, 13.162359914108842 ] } },
{ "type": "Feature", "properties": { "OBJECTID": 169, "KGISATP_CounterID": 169, "DepartmentCode": "169", "KGISWardID": null, "KGISVillageID": 15508, "KGISCode": null, "ATP_CounterName": "MADHUGIRI", "KGISSectionID": 207 }, "geometry": { "type": "Point", "coordinates": [ 77.608569992468247, 12.895089881441375 ] } },
{ "type": "Feature", "properties": { "OBJECTID": 17, "KGISATP_CounterID": 17, "DepartmentCode": "17", "KGISWardID": null, "KGISVillageID": 15518, "KGISCode": null, "ATP_CounterName": "S8-HONGASANDRA", "KGISSectionID": 204 }, "geometry": { "type": "Point", "coordinates": [ 77.630559992886532, 12.897339879948682 ] } },
{ "type": "Feature", "properties": { "OBJECTID": 170, "KGISATP_CounterID": 170, "DepartmentCode": "170", "KGISWardID": null, "KGISVillageID": 14549, "KGISCode": null, "ATP_CounterName": "SIRA URBAN", "KGISSectionID": 22 }, "geometry": { "type": "Point", "coordinates": [ 76.911289995338322, 13.754229904944639 ] } },
{ "type": "Feature", "properties": { "OBJECTID": 171, "KGISATP_CounterID": 171, "DepartmentCode": "171", "KGISWardID": null, "KGISVillageID": 14548, "KGISCode": null, "ATP_CounterName": "SIRA URBAN", "KGISSectionID": 22 }, "geometry": { "type": "Point", "coordinates": [ 76.892289995777915, 13.754779905361429 ] } },
{ "type": "Feature", "properties": { "OBJECTID": 172, "KGISATP_CounterID": 172, "DepartmentCode": "172", "KGISWardID": null, "KGISVillageID": 18314, "KGISCode": null, "ATP_CounterName": "KORATAGERE", "KGISSectionID": null }, "geometry": { "type": "Point", "coordinates": [ 77.235579994131655, 13.523659895879115 ] } },
{ "type": "Feature", "properties": { "OBJECTID": 173, "KGISATP_CounterID": 173, "DepartmentCode": "173", "KGISWardID": null, "KGISVillageID": 14676, "KGISCode": null, "ATP_CounterName": "PAVAGADA", "KGISSectionID": null }, "geometry": { "type": "Point", "coordinates": [ 77.281259994545621, 14.103069889867431 ] } },
{ "type": "Feature", "properties": { "OBJECTID": 174, "KGISATP_CounterID": 174, "DepartmentCode": "174", "KGISWardID": null, "KGISVillageID": 18562, "KGISCode": null, "ATP_CounterName": "KUNIGAL", "KGISSectionID": 11 }, "geometry": { "type": "Point", "coordinates": [ 77.021259994901641, 13.023329906794828 ] } },
{ "type": "Feature", "properties": { "OBJECTID": 175, "KGISATP_CounterID": 175, "DepartmentCode": "175", "KGISWardID": null, "KGISVillageID": 11791, "KGISCode": null, "ATP_CounterName": "DAVANAGERE CSD - 1", "KGISSectionID": 45 }, "geometry": { "type": "Point", "coordinates": [ 75.919569997682672, 14.46018991302752 ] } },
{ "type": "Feature", "properties": { "OBJECTID": 176, "KGISATP_CounterID": 176, "DepartmentCode": "176", "KGISWardID": null, "KGISVillageID": 11791, "KGISCode": null, "ATP_CounterName": "DAVANGERE CSD 2", "KGISSectionID": 45 }, "geometry": { "type": "Point", "coordinates": [ 75.919479997550511, 14.460179912999925 ] } },
{ "type": "Feature", "properties": { "OBJECTID": 177, "KGISATP_CounterID": 177, "DepartmentCode": "177", "KGISWardID": null, "KGISVillageID": 11791, "KGISCode": null, "ATP_CounterName": "DAVANGERE CITY 2", "KGISSectionID": 45 }, "geometry": { "type": "Point", "coordinates": [ 75.919479997550511, 14.460179912999925 ] } },
{ "type": "Feature", "properties": { "OBJECTID": 178, "KGISATP_CounterID": 178, "DepartmentCode": "178", "KGISWardID": null, "KGISVillageID": 11962, "KGISCode": null, "ATP_CounterName": "HARIHARA", "KGISSectionID": 43 }, "geometry": { "type": "Point", "coordinates": [ 75.803819998159895, 14.517809913104999 ] } },
{ "type": "Feature", "properties": { "OBJECTID": 179, "KGISATP_CounterID": 179, "DepartmentCode": "179", "KGISWardID": null, "KGISVillageID": 11908, "KGISCode": null, "ATP_CounterName": "HARAPANAHALLY", "KGISSectionID": 229 }, "geometry": { "type": "Point", "coordinates": [ 75.984119997612439, 14.781019911259239 ] } },
{ "type": "Feature", "properties": { "OBJECTID": 18, "KGISATP_CounterID": 18, "DepartmentCode": "18", "KGISWardID": null, "KGISVillageID": 15518, "KGISCode": null, "ATP_CounterName": "S8-BOMMANAHALLY", "KGISSectionID": 203 }, "geometry": { "type": "Point", "coordinates": [ 77.639959992545243, 12.892129878641928 ] } },
{ "type": "Feature", "properties": { "OBJECTID": 180, "KGISATP_CounterID": 180, "DepartmentCode": "180", "KGISWardID": null, "KGISVillageID": 5879, "KGISCode": null, "ATP_CounterName": "CHITRADURGA", "KGISSectionID": 42 }, "geometry": { "type": "Point", "coordinates": [ 76.405639996462227, 14.226239911773051 ] } },
{ "type": "Feature", "properties": { "OBJECTID": 181, "KGISATP_CounterID": 181, "DepartmentCode": "181", "KGISWardID": null, "KGISVillageID": 11238, "KGISCode": null, "ATP_CounterName": "HIRIYURU", "KGISSectionID": 51 }, "geometry": { "type": "Point", "coordinates": [ 76.613419995810546, 13.960669910634962 ] } },
{ "type": "Feature", "properties": { "OBJECTID": 182, "KGISATP_CounterID": 182, "DepartmentCode": "182", "KGISWardID": null, "KGISVillageID": 5621, "KGISCode": null, "ATP_CounterName": "CHALKERE", "KGISSectionID": 19 }, "geometry": { "type": "Point", "coordinates": [ 76.646439995877245, 14.312059907977956 ] } },
{ "type": "Feature", "properties": { "OBJECTID": 19, "KGISATP_CounterID": 19, "DepartmentCode": "19", "KGISWardID": null, "KGISVillageID": 15520, "KGISCode": null, "ATP_CounterName": "S10-BEGUR", "KGISSectionID": 128 }, "geometry": { "type": "Point", "coordinates": [ 77.602659993021391, 12.876059881593312 ] } },
{ "type": "Feature", "properties": { "OBJECTID": 2, "KGISATP_CounterID": 2, "DepartmentCode": "2", "KGISWardID": null, "KGISVillageID": 21477, "KGISCode": null, "ATP_CounterName": "S3-MURUGESH PALYA", "KGISSectionID": 124 }, "geometry": { "type": "Point", "coordinates": [ 77.656219992313495, 12.959219877793386 ] } },
{ "type": "Feature", "properties": { "OBJECTID": 20, "KGISATP_CounterID": 20, "DepartmentCode": "20", "KGISWardID": null, "KGISVillageID": 15517, "KGISCode": null, "ATP_CounterName": "S11 - HSR LAYOUT", "KGISSectionID": 123 }, "geometry": { "type": "Point", "coordinates": [ 77.648809993003681, 12.912749877812727 ] } },
{ "type": "Feature", "properties": { "OBJECTID": 21, "KGISATP_CounterID": 21, "DepartmentCode": "21", "KGISWardID": null, "KGISVillageID": 15150, "KGISCode": null, "ATP_CounterName": "S11-BELLANDUR", "KGISSectionID": 150 }, "geometry": { "type": "Point", "coordinates": [ 77.594339992816217, 12.965809881713421 ] } },
{ "type": "Feature", "properties": { "OBJECTID": 22, "KGISATP_CounterID": 22, "DepartmentCode": "22", "KGISWardID": null, "KGISVillageID": 15713, "KGISCode": null, "ATP_CounterName": "S12-THALAGATTAPURA O&M", "KGISSectionID": 195 }, "geometry": { "type": "Point", "coordinates": [ 77.538979993043682, 12.868679885356192 ] } },
{ "type": "Feature", "properties": { "OBJECTID": 23, "KGISATP_CounterID": 23, "DepartmentCode": "23", "KGISWardID": null, "KGISVillageID": 15544, "KGISCode": null, "ATP_CounterName": "S13-SING SANDRA", "KGISSectionID": 202 }, "geometry": { "type": "Point", "coordinates": [ 77.652379992367401, 12.878329878231396 ] } },
{ "type": "Feature", "properties": { "OBJECTID": 24, "KGISATP_CounterID": 24, "DepartmentCode": "24", "KGISWardID": null, "KGISVillageID": 15123, "KGISCode": null, "ATP_CounterName": "E1-FAZER TOWN", "KGISSectionID": 142 }, "geometry": { "type": "Point", "coordinates": [ 77.613609993061047, 12.997829879997544 ] } },
{ "type": "Feature", "properties": { "OBJECTID": 25, "KGISATP_CounterID": 25, "DepartmentCode": "25", "KGISWardID": null, "KGISVillageID": 21404, "KGISCode": null, "ATP_CounterName": "E1-BENSON TOWN", "KGISSectionID": 179 }, "geometry": { "type": "Point", "coordinates": [ 77.652399992316077, 13.01385987746076 ] } },
{ "type": "Feature", "properties": { "OBJECTID": 26, "KGISATP_CounterID": 26, "DepartmentCode": "26", "KGISWardID": null, "KGISVillageID": 30092, "KGISCode": null, "ATP_CounterName": "E2-BHARATHI NAGARA", "KGISSectionID": 157 }, "geometry": { "type": "Point", "coordinates": [ 77.61866999310341, 12.987629879428797 ] } },
{ "type": "Feature", "properties": { "OBJECTID": 27, "KGISATP_CounterID": 27, "DepartmentCode": "27", "KGISWardID": null, "KGISVillageID": 30092, "KGISCode": null, "ATP_CounterName": "E2-TASKER TOWN", "KGISSectionID": 61 }, "geometry": { "type": "Point", "coordinates": [ 77.606589993258225, 12.982239880446203 ] } },
{ "type": "Feature", "properties": { "OBJECTID": 28, "KGISATP_CounterID": 28, "DepartmentCode": "28", "KGISWardID": null, "KGISVillageID": 21404, "KGISCode": null, "ATP_CounterName": "E8-BANASVADI", "KGISSectionID": 179 }, "geometry": { "type": "Point", "coordinates": [ 77.651359992783739, 13.008539877785605 ] } },
{ "type": "Feature", "properties": { "OBJECTID": 29, "KGISATP_CounterID": 29, "DepartmentCode": "29", "KGISWardID": null, "KGISVillageID": 21404, "KGISCode": null, "ATP_CounterName": "E8-BABUSAPALYA", "KGISSectionID": 68 }, "geometry": { "type": "Point", "coordinates": [ 77.647699992761858, 13.022799877837345 ] } },
{ "type": "Feature", "properties": { "OBJECTID": 3, "KGISATP_CounterID": 3, "DepartmentCode": "3", "KGISWardID": null, "KGISVillageID": 15545, "KGISCode": null, "ATP_CounterName": "S4-MADIWALA O&M", "KGISSectionID": 153 }, "geometry": { "type": "Point", "coordinates": [ 77.610779993161231, 12.930249880552214 ] } },
{ "type": "Feature", "properties": { "OBJECTID": 30, "KGISATP_CounterID": 30, "DepartmentCode": "30", "KGISWardID": null, "KGISVillageID": 15124, "KGISCode": null, "ATP_CounterName": "E9-NAGAWARA", "KGISSectionID": 183 }, "geometry": { "type": "Point", "coordinates": [ 77.633169992819845, 13.027479878365984 ] } },
{ "type": "Feature", "properties": { "OBJECTID": 31, "KGISATP_CounterID": 31, "DepartmentCode": "31", "KGISWardID": null, "KGISVillageID": 21308, "KGISCode": null, "ATP_CounterName": "E9-KOTHANURU", "KGISSectionID": 183 }, "geometry": { "type": "Point", "coordinates": [ 77.648249993027434, 13.056959877291469 ] } },
{ "type": "Feature", "properties": { "OBJECTID": 32, "KGISATP_CounterID": 32, "DepartmentCode": "32", "KGISWardID": null, "KGISVillageID": 30092, "KGISCode": null, "ATP_CounterName": "E3-MG ROAD", "KGISSectionID": 92 }, "geometry": { "type": "Point", "coordinates": [ 77.613479992688269, 12.974069880107356 ] } },
{ "type": "Feature", "properties": { "OBJECTID": 33, "KGISATP_CounterID": 33, "DepartmentCode": "33", "KGISWardID": null, "KGISVillageID": 15093, "KGISCode": null, "ATP_CounterName": "E3- HALASURU SECTION OFF", "KGISSectionID": 132 }, "geometry": { "type": "Point", "coordinates": [ 77.633259992265721, 12.970669878639674 ] } },
{ "type": "Feature", "properties": { "OBJECTID": 34, "KGISATP_CounterID": 34, "DepartmentCode": "34", "KGISWardID": null, "KGISVillageID": 21394, "KGISCode": null, "ATP_CounterName": "E4-MAHADEVAPURA", "KGISSectionID": 138 }, "geometry": { "type": "Point", "coordinates": [ 77.699319992572271, 12.994759874141314 ] } },
{ "type": "Feature", "properties": { "OBJECTID": 35, "KGISATP_CounterID": 35, "DepartmentCode": "35", "KGISWardID": null, "KGISVillageID": 21396, "KGISCode": null, "ATP_CounterName": "E4-WHITEFIELD", "KGISSectionID": 216 }, "geometry": { "type": "Point", "coordinates": [ 77.754429992232033, 12.971099869978255 ] } },
{ "type": "Feature", "properties": { "OBJECTID": 36, "KGISATP_CounterID": 36, "DepartmentCode": "36", "KGISWardID": null, "KGISVillageID": 21354, "KGISCode": null, "ATP_CounterName": "E4-KADGODI", "KGISSectionID": 117 }, "geometry": { "type": "Point", "coordinates": [ 77.761549992306939, 12.998329869724383 ] } },
{ "type": "Feature", "properties": { "OBJECTID": 37, "KGISATP_CounterID": 37, "DepartmentCode": "37", "KGISWardID": null, "KGISVillageID": 21491, "KGISCode": null, "ATP_CounterName": "E4-VARTHUR", "KGISSectionID": 215 }, "geometry": { "type": "Point", "coordinates": [ 77.746979992456971, 12.94190987097125 ] } },
{ "type": "Feature", "properties": { "OBJECTID": 38, "KGISATP_CounterID": 38, "DepartmentCode": "38", "KGISWardID": null, "KGISVillageID": 15118, "KGISCode": null, "ATP_CounterName": "E6-INDRANAGAR", "KGISSectionID": 62 }, "geometry": { "type": "Point", "coordinates": [ 77.63660999277171, 12.981749878243665 ] } },
{ "type": "Feature", "properties": { "OBJECTID": 39, "KGISATP_CounterID": 39, "DepartmentCode": "39", "KGISWardID": null, "KGISVillageID": 15118, "KGISCode": null, "ATP_CounterName": "E6-INDRANAGAR O&M", "KGISSectionID": 62 }, "geometry": { "type": "Point", "coordinates": [ 77.63660999277171, 12.981749878243665 ] } },
{ "type": "Feature", "properties": { "OBJECTID": 4, "KGISATP_CounterID": 4, "DepartmentCode": "4", "KGISWardID": null, "KGISVillageID": 15524, "KGISCode": null, "ATP_CounterName": "S4-KORAMANGALA", "KGISSectionID": 66 }, "geometry": { "type": "Point", "coordinates": [ 77.629659992925895, 12.932239879399981 ] } },
{ "type": "Feature", "properties": { "OBJECTID": 40, "KGISATP_CounterID": 40, "DepartmentCode": "40", "KGISWardID": null, "KGISVillageID": 21477, "KGISCode": null, "ATP_CounterName": "E6-JEEVAN BHIMA NAGAR", "KGISSectionID": 152 }, "geometry": { "type": "Point", "coordinates": [ 77.658789993007645, 12.965069876751386 ] } },
{ "type": "Feature", "properties": { "OBJECTID": 41, "KGISATP_CounterID": 41, "DepartmentCode": "41", "KGISWardID": null, "KGISVillageID": 21385, "KGISCode": null, "ATP_CounterName": "E7-K R PURA", "KGISSectionID": 192 }, "geometry": { "type": "Point", "coordinates": [ 77.681849992329973, 13.003949875206867 ] } },
{ "type": "Feature", "properties": { "OBJECTID": 42, "KGISATP_CounterID": 42, "DepartmentCode": "42", "KGISWardID": null, "KGISVillageID": 21387, "KGISCode": null, "ATP_CounterName": "E10-PAI LAYOUT", "KGISSectionID": 182 }, "geometry": { "type": "Point", "coordinates": [ 77.666949992446817, 12.992859876597715 ] } },
{ "type": "Feature", "properties": { "OBJECTID": 43, "KGISATP_CounterID": 43, "DepartmentCode": "43", "KGISWardID": null, "KGISVillageID": 21415, "KGISCode": null, "ATP_CounterName": "E10-KAGDASPURA", "KGISSectionID": 175 }, "geometry": { "type": "Point", "coordinates": [ 77.675899992316516, 12.984489875964982 ] } },
{ "type": "Feature", "properties": { "OBJECTID": 44, "KGISATP_CounterID": 44, "DepartmentCode": "44", "KGISWardID": null, "KGISVillageID": 29327, "KGISCode": null, "ATP_CounterName": "W3-GOWRIPALYA", "KGISSectionID": null }, "geometry": { "type": "Point", "coordinates": [ 77.331199994194023, 12.582499898256378 ] } },
{ "type": "Feature", "properties": { "OBJECTID": 45, "KGISATP_CounterID": 45, "DepartmentCode": "45", "KGISWardID": null, "KGISVillageID": 29327, "KGISCode": null, "ATP_CounterName": "W3-GOWRIPALYA O&M", "KGISSectionID": null }, "geometry": { "type": "Point", "coordinates": [ 77.331199994194023, 12.582499898256378 ] } },
{ "type": "Feature", "properties": { "OBJECTID": 46, "KGISATP_CounterID": 46, "DepartmentCode": "46", "KGISWardID": null, "KGISVillageID": 29327, "KGISCode": null, "ATP_CounterName": "W3-MAGADI ROAD", "KGISSectionID": null }, "geometry": { "type": "Point", "coordinates": [ 77.331199994194023, 12.582499898256378 ] } },
{ "type": "Feature", "properties": { "OBJECTID": 47, "KGISATP_CounterID": 47, "DepartmentCode": "47", "KGISWardID": null, "KGISVillageID": 30092, "KGISCode": null, "ATP_CounterName": "W3 -COTTONPET", "KGISSectionID": 143 }, "geometry": { "type": "Point", "coordinates": [ 77.570169992953595, 12.970889882521471 ] } },
{ "type": "Feature", "properties": { "OBJECTID": 48, "KGISATP_CounterID": 48, "DepartmentCode": "48", "KGISWardID": null, "KGISVillageID": 30092, "KGISCode": null, "ATP_CounterName": "W4-RT STREET", "KGISSectionID": 144 }, "geometry": { "type": "Point", "coordinates": [ 77.577349993057339, 12.971509882422614 ] } },
{ "type": "Feature", "properties": { "OBJECTID": 49, "KGISATP_CounterID": 49, "DepartmentCode": "49", "KGISWardID": null, "KGISVillageID": 30092, "KGISCode": null, "ATP_CounterName": "W5-CITY MARKET", "KGISSectionID": 167 }, "geometry": { "type": "Point", "coordinates": [ 77.573989993376287, 12.961419882825338 ] } },
{ "type": "Feature", "properties": { "OBJECTID": 5, "KGISATP_CounterID": 5, "DepartmentCode": "5", "KGISWardID": null, "KGISVillageID": 21433, "KGISCode": null, "ATP_CounterName": "S7-MARTHAHALLY", "KGISSectionID": 196 }, "geometry": { "type": "Point", "coordinates": [ 77.682559992913994, 12.966859875294391 ] } },
{ "type": "Feature", "properties": { "OBJECTID": 50, "KGISATP_CounterID": 50, "DepartmentCode": "50", "KGISWardID": null, "KGISVillageID": 15491, "KGISCode": null, "ATP_CounterName": "N4-PEENYA", "KGISSectionID": 134 }, "geometry": { "type": "Point", "coordinates": [ 77.527399993238035, 13.032019884572851 ] } },
{ "type": "Feature", "properties": { "OBJECTID": 51, "KGISATP_CounterID": 51, "DepartmentCode": "51", "KGISWardID": null, "KGISVillageID": 15453, "KGISCode": null, "ATP_CounterName": "N4-LAGGERE", "KGISSectionID": 161 }, "geometry": { "type": "Point", "coordinates": [ 77.519469993434129, 13.024859885161948 ] } },
{ "type": "Feature", "properties": { "OBJECTID": 52, "KGISATP_CounterID": 52, "DepartmentCode": "52", "KGISWardID": null, "KGISVillageID": 15453, "KGISCode": null, "ATP_CounterName": "N4-CHOKKSANDRA", "KGISSectionID": 231 }, "geometry": { "type": "Point", "coordinates": [ 77.51535999317268, 13.03894988595102 ] } },
{ "type": "Feature", "properties": { "OBJECTID": 53, "KGISATP_CounterID": 53, "DepartmentCode": "53", "KGISWardID": null, "KGISVillageID": 15491, "KGISCode": null, "ATP_CounterName": "N5-PEENYA", "KGISSectionID": 134 }, "geometry": { "type": "Point", "coordinates": [ 77.527399993238035, 13.032019884572851 ] } },
{ "type": "Feature", "properties": { "OBJECTID": 54, "KGISATP_CounterID": 54, "DepartmentCode": "54", "KGISWardID": null, "KGISVillageID": 15311, "KGISCode": null, "ATP_CounterName": "N5-SOLEDEVANAHALLI", "KGISSectionID": 211 }, "geometry": { "type": "Point", "coordinates": [ 77.491079993758788, 13.092189886612662 ] } },
{ "type": "Feature", "properties": { "OBJECTID": 55, "KGISATP_CounterID": 55, "DepartmentCode": "55", "KGISWardID": null, "KGISVillageID": 15495, "KGISCode": null, "ATP_CounterName": "N5-BAGALGUNTE", "KGISSectionID": 135 }, "geometry": { "type": "Point", "coordinates": [ 77.501029992957754, 13.065829886179857 ] } },
{ "type": "Feature", "properties": { "OBJECTID": 56, "KGISATP_CounterID": 56, "DepartmentCode": "56", "KGISWardID": null, "KGISVillageID": 15229, "KGISCode": null, "ATP_CounterName": "N5-HESARGATTA", "KGISSectionID": null }, "geometry": { "type": "Point", "coordinates": [ 77.461029993206893, 13.060459888268056 ] } },
{ "type": "Feature", "properties": { "OBJECTID": 57, "KGISATP_CounterID": 57, "DepartmentCode": "57", "KGISWardID": null, "KGISVillageID": 15419, "KGISCode": null, "ATP_CounterName": "N5-O&M-T DASARAHALLI", "KGISSectionID": 134 }, "geometry": { "type": "Point", "coordinates": [ 77.53003999348627, 13.04876988428521 ] } },
{ "type": "Feature", "properties": { "OBJECTID": 58, "KGISATP_CounterID": 58, "DepartmentCode": "58", "KGISWardID": null, "KGISVillageID": 15369, "KGISCode": null, "ATP_CounterName": "N7-NANDHINI LAYOUT 1", "KGISSectionID": 232 }, "geometry": { "type": "Point", "coordinates": [ 77.534649992724354, 13.011359884810755 ] } },
{ "type": "Feature", "properties": { "OBJECTID": 59, "KGISATP_CounterID": 59, "DepartmentCode": "59", "KGISWardID": null, "KGISVillageID": 15483, "KGISCode": null, "ATP_CounterName": "N7-MAHALAKSHMI LAYOUT", "KGISSectionID": 95 }, "geometry": { "type": "Point", "coordinates": [ 77.534559993519579, 13.007069884523967 ] } },
{ "type": "Feature", "properties": { "OBJECTID": 6, "KGISATP_CounterID": 6, "DepartmentCode": "6", "KGISWardID": null, "KGISVillageID": 21409, "KGISCode": null, "ATP_CounterName": "S7-BASAVANAGAR", "KGISSectionID": 206 }, "geometry": { "type": "Point", "coordinates": [ 77.724529992310451, 12.965479872958873 ] } },
{ "type": "Feature", "properties": { "OBJECTID": 60, "KGISATP_CounterID": 60, "DepartmentCode": "60", "KGISWardID": null, "KGISVillageID": 15369, "KGISCode": null, "ATP_CounterName": "N7-NANDHINI LAYOUT 2", "KGISSectionID": 232 }, "geometry": { "type": "Point", "coordinates": [ 77.534649992724354, 13.011359884810755 ] } },
{ "type": "Feature", "properties": { "OBJECTID": 61, "KGISATP_CounterID": 61, "DepartmentCode": "61", "KGISWardID": null, "KGISVillageID": 15481, "KGISCode": null, "ATP_CounterName": "C1-DEVVAYAPARK", "KGISSectionID": 111 }, "geometry": { "type": "Point", "coordinates": [ 77.564279993103725, 12.996409883336321 ] } },
{ "type": "Feature", "properties": { "OBJECTID": 62, "KGISATP_CounterID": 62, "DepartmentCode": "62", "KGISWardID": null, "KGISVillageID": 15481, "KGISCode": null, "ATP_CounterName": "C1-OKLIPURA", "KGISSectionID": 137 }, "geometry": { "type": "Point", "coordinates": [ 77.565009993404857, 12.989989883062396 ] } },
{ "type": "Feature", "properties": { "OBJECTID": 63, "KGISATP_CounterID": 63, "DepartmentCode": "63", "KGISWardID": null, "KGISVillageID": 15481, "KGISCode": null, "ATP_CounterName": "C1-PRAKASHNAGARA", "KGISSectionID": 83 }, "geometry": { "type": "Point", "coordinates": [ 77.55370999289714, 12.994129883693516 ] } },
{ "type": "Feature", "properties": { "OBJECTID": 64, "KGISATP_CounterID": 64, "DepartmentCode": "64", "KGISWardID": null, "KGISVillageID": 15481, "KGISCode": null, "ATP_CounterName": "C1-RAJAJINAGARA", "KGISSectionID": 83 }, "geometry": { "type": "Point", "coordinates": [ 77.554969992941409, 12.994299883320179 ] } },
{ "type": "Feature", "properties": { "OBJECTID": 65, "KGISATP_CounterID": 65, "DepartmentCode": "65", "KGISWardID": null, "KGISVillageID": 15128, "KGISCode": null, "ATP_CounterName": "C2-MALLESHWARAM", "KGISSectionID": 158 }, "geometry": { "type": "Point", "coordinates": [ 77.568769992853419, 13.004039882788444 ] } },
{ "type": "Feature", "properties": { "OBJECTID": 66, "KGISATP_CounterID": 66, "DepartmentCode": "66", "KGISWardID": null, "KGISVillageID": 15161, "KGISCode": null, "ATP_CounterName": "C2-VYALIKAVAL", "KGISSectionID": 59 }, "geometry": { "type": "Point", "coordinates": [ 77.578909992785142, 13.005539881622747 ] } },
{ "type": "Feature", "properties": { "OBJECTID": 67, "KGISATP_CounterID": 67, "DepartmentCode": "67", "KGISWardID": null, "KGISVillageID": 30092, "KGISCode": null, "ATP_CounterName": "C2-PALACE GUTTEHALLI", "KGISSectionID": 97 }, "geometry": { "type": "Point", "coordinates": [ 77.581119992727835, 12.990509881732766 ] } },
{ "type": "Feature", "properties": { "OBJECTID": 68, "KGISATP_CounterID": 68, "DepartmentCode": "68", "KGISWardID": null, "KGISVillageID": 15469, "KGISCode": null, "ATP_CounterName": "C3-JALAHALLI", "KGISSectionID": 87 }, "geometry": { "type": "Point", "coordinates": [ 77.549539993404409, 13.048669883378791 ] } },
{ "type": "Feature", "properties": { "OBJECTID": 69, "KGISATP_CounterID": 69, "DepartmentCode": "69", "KGISWardID": null, "KGISVillageID": 15449, "KGISCode": null, "ATP_CounterName": "C3-ABBIGERE", "KGISSectionID": 121 }, "geometry": { "type": "Point", "coordinates": [ 77.528669993529931, 13.071099884386951 ] } },
{ "type": "Feature", "properties": { "OBJECTID": 7, "KGISATP_CounterID": 7, "DepartmentCode": "7", "KGISWardID": null, "KGISVillageID": 15680, "KGISCode": null, "ATP_CounterName": "S1-JAYANAGAR", "KGISSectionID": 77 }, "geometry": { "type": "Point", "coordinates": [ 77.589239992713928, 12.932139882096493 ] } },
{ "type": "Feature", "properties": { "OBJECTID": 70, "KGISATP_CounterID": 70, "DepartmentCode": "70", "KGISWardID": null, "KGISVillageID": 15143, "KGISCode": null, "ATP_CounterName": "C6 - MATHIKERE", "KGISSectionID": 193 }, "geometry": { "type": "Point", "coordinates": [ 77.557309993270508, 13.035999883002622 ] } },
{ "type": "Feature", "properties": { "OBJECTID": 71, "KGISATP_CounterID": 71, "DepartmentCode": "71", "KGISWardID": null, "KGISVillageID": 15480, "KGISCode": null, "ATP_CounterName": "C6-YESHWANTHPURA(O&M)", "KGISSectionID": 114 }, "geometry": { "type": "Point", "coordinates": [ 77.55385999315348, 13.022039883083018 ] } },
{ "type": "Feature", "properties": { "OBJECTID": 72, "KGISATP_CounterID": 72, "DepartmentCode": "72", "KGISWardID": null, "KGISVillageID": 15499, "KGISCode": null, "ATP_CounterName": "C6-MATHIKERE", "KGISSectionID": 87 }, "geometry": { "type": "Point", "coordinates": [ 77.545769992863313, 13.036169884140801 ] } },
{ "type": "Feature", "properties": { "OBJECTID": 73, "KGISATP_CounterID": 73, "DepartmentCode": "73", "KGISWardID": null, "KGISVillageID": 15112, "KGISCode": null, "ATP_CounterName": "C4-TATA NAGAR", "KGISSectionID": 174 }, "geometry": { "type": "Point", "coordinates": [ 77.587859993044361, 13.03005988091684 ] } },
{ "type": "Feature", "properties": { "OBJECTID": 74, "KGISATP_CounterID": 74, "DepartmentCode": "74", "KGISWardID": null, "KGISVillageID": 15100, "KGISCode": null, "ATP_CounterName": "C4-SANJAYNAGAR", "KGISSectionID": 88 }, "geometry": { "type": "Point", "coordinates": [ 77.575469992772298, 13.033699881993499 ] } },
{ "type": "Feature", "properties": { "OBJECTID": 75, "KGISATP_CounterID": 75, "DepartmentCode": "75", "KGISWardID": null, "KGISVillageID": 15098, "KGISCode": null, "ATP_CounterName": "C4-GANGA NAGARA", "KGISSectionID": 174 }, "geometry": { "type": "Point", "coordinates": [ 77.587909992617412, 13.025789881667041 ] } },
{ "type": "Feature", "properties": { "OBJECTID": 76, "KGISATP_CounterID": 76, "DepartmentCode": "76", "KGISWardID": null, "KGISVillageID": 21427, "KGISCode": null, "ATP_CounterName": "C4-HEBBAL", "KGISSectionID": 216 }, "geometry": { "type": "Point", "coordinates": [ 77.73207999187467, 12.992749871752837 ] } },
{ "type": "Feature", "properties": { "OBJECTID": 77, "KGISATP_CounterID": 77, "DepartmentCode": "77", "KGISWardID": null, "KGISVillageID": 15129, "KGISCode": null, "ATP_CounterName": "C5-LR BANDE", "KGISSectionID": 50 }, "geometry": { "type": "Point", "coordinates": [ 77.611659992406103, 13.028109880122908 ] } },
{ "type": "Feature", "properties": { "OBJECTID": 78, "KGISATP_CounterID": 78, "DepartmentCode": "78", "KGISWardID": null, "KGISVillageID": 15125, "KGISCode": null, "ATP_CounterName": "C5-KAVALBAIRASANDRA", "KGISSectionID": 50 }, "geometry": { "type": "Point", "coordinates": [ 77.616089992416448, 13.02553987973169 ] } },
{ "type": "Feature", "properties": { "OBJECTID": 79, "KGISATP_CounterID": 79, "DepartmentCode": "79", "KGISWardID": null, "KGISVillageID": 15447, "KGISCode": null, "ATP_CounterName": "C7-YALAHANKA", "KGISSectionID": 201 }, "geometry": { "type": "Point", "coordinates": [ 77.594389992656232, 13.094029879992577 ] } },
{ "type": "Feature", "properties": { "OBJECTID": 8, "KGISATP_CounterID": 8, "DepartmentCode": "8", "KGISWardID": null, "KGISVillageID": 15545, "KGISCode": null, "ATP_CounterName": "S1- JAYNAGAR 9TH BLOCK", "KGISSectionID": 155 }, "geometry": { "type": "Point", "coordinates": [ 77.597379992537881, 12.922989881179822 ] } },
{ "type": "Feature", "properties": { "OBJECTID": 80, "KGISATP_CounterID": 80, "DepartmentCode": "80", "KGISWardID": null, "KGISVillageID": 15447, "KGISCode": null, "ATP_CounterName": "C7-RAJANKUNTE", "KGISSectionID": 116 }, "geometry": { "type": "Point", "coordinates": [ 77.592679993362054, 13.097349880597186 ] } },
{ "type": "Feature", "properties": { "OBJECTID": 81, "KGISATP_CounterID": 81, "DepartmentCode": "81", "KGISWardID": null, "KGISVillageID": 15435, "KGISCode": null, "ATP_CounterName": "C7-YELAHANKA OLD TOWN.", "KGISSectionID": 80 }, "geometry": { "type": "Point", "coordinates": [ 77.602499993193462, 13.096019879698877 ] } },
{ "type": "Feature", "properties": { "OBJECTID": 82, "KGISATP_CounterID": 82, "DepartmentCode": "82", "KGISWardID": null, "KGISVillageID": 15435, "KGISCode": null, "ATP_CounterName": "C7-YELAHANKA NEW TOWN.", "KGISSectionID": 80 }, "geometry": { "type": "Point", "coordinates": [ 77.602499993193462, 13.096019879698877 ] } },
{ "type": "Feature", "properties": { "OBJECTID": 83, "KGISATP_CounterID": 83, "DepartmentCode": "83", "KGISWardID": null, "KGISVillageID": 15436, "KGISCode": null, "ATP_CounterName": "C8-VIDYARANYAPURA", "KGISSectionID": 210 }, "geometry": { "type": "Point", "coordinates": [ 77.561329992918118, 13.075029882763106 ] } },
{ "type": "Feature", "properties": { "OBJECTID": 84, "KGISATP_CounterID": 84, "DepartmentCode": "84", "KGISWardID": null, "KGISVillageID": 15392, "KGISCode": null, "ATP_CounterName": "C8-SAHAKARANAGARA", "KGISSectionID": 201 }, "geometry": { "type": "Point", "coordinates": [ 77.585969992526259, 13.065559880937338 ] } },
{ "type": "Feature", "properties": { "OBJECTID": 85, "KGISATP_CounterID": 85, "DepartmentCode": "85", "KGISWardID": null, "KGISVillageID": 15435, "KGISCode": null, "ATP_CounterName": "C8-JAKKUR", "KGISSectionID": 80 }, "geometry": { "type": "Point", "coordinates": [ 77.600319993108215, 13.093769880175104 ] } },
{ "type": "Feature", "properties": { "OBJECTID": 86, "KGISATP_CounterID": 86, "DepartmentCode": "86", "KGISWardID": null, "KGISVillageID": 15481, "KGISCode": null, "ATP_CounterName": "N1-RAJAJI NAGAR", "KGISSectionID": 83 }, "geometry": { "type": "Point", "coordinates": [ 77.551019993025349, 12.992669883595354 ] } },
{ "type": "Feature", "properties": { "OBJECTID": 87, "KGISATP_CounterID": 87, "DepartmentCode": "87", "KGISWardID": null, "KGISVillageID": 15115, "KGISCode": null, "ATP_CounterName": "N1- RAJAJINAGAR 6TH BLOCK", "KGISSectionID": 112 }, "geometry": { "type": "Point", "coordinates": [ 77.552249993104027, 12.975769884081732 ] } },
{ "type": "Feature", "properties": { "OBJECTID": 88, "KGISATP_CounterID": 88, "DepartmentCode": "88", "KGISWardID": null, "KGISVillageID": 15116, "KGISCode": null, "ATP_CounterName": "N2-RAJAJINAGAR", "KGISSectionID": 85 }, "geometry": { "type": "Point", "coordinates": [ 77.528789992786386, 12.958819885104738 ] } },
{ "type": "Feature", "properties": { "OBJECTID": 89, "KGISATP_CounterID": 89, "DepartmentCode": "89", "KGISWardID": null, "KGISVillageID": 15116, "KGISCode": null, "ATP_CounterName": "N2-RPC LAYOUT", "KGISSectionID": 115 }, "geometry": { "type": "Point", "coordinates": [ 77.546069992647205, 12.973809884105279 ] } },
{ "type": "Feature", "properties": { "OBJECTID": 9, "KGISATP_CounterID": 9, "DepartmentCode": "9", "KGISWardID": null, "KGISVillageID": 15714, "KGISCode": null, "ATP_CounterName": "S1-SOMESHWARA NAGAR", "KGISSectionID": 131 }, "geometry": { "type": "Point", "coordinates": [ 77.579419993037277, 12.918299882928343 ] } },
{ "type": "Feature", "properties": { "OBJECTID": 90, "KGISATP_CounterID": 90, "DepartmentCode": "90", "KGISWardID": null, "KGISVillageID": 15494, "KGISCode": null, "ATP_CounterName": "N3-BASAVESHWARANAGARA", "KGISSectionID": 79 }, "geometry": { "type": "Point", "coordinates": [ 77.544159992937779, 12.985689884486273 ] } },
{ "type": "Feature", "properties": { "OBJECTID": 91, "KGISATP_CounterID": 91, "DepartmentCode": "91", "KGISWardID": null, "KGISVillageID": 15494, "KGISCode": null, "ATP_CounterName": "N3-SUBDIVISION OFFICE", "KGISSectionID": 79 }, "geometry": { "type": "Point", "coordinates": [ 77.544159992937779, 12.985689884486273 ] } },
{ "type": "Feature", "properties": { "OBJECTID": 92, "KGISATP_CounterID": 92, "DepartmentCode": "92", "KGISWardID": null, "KGISVillageID": 15498, "KGISCode": null, "ATP_CounterName": "N6-SUNKUTKATTE", "KGISSectionID": 125 }, "geometry": { "type": "Point", "coordinates": [ 77.497969993383521, 12.989499886458537 ] } },
{ "type": "Feature", "properties": { "OBJECTID": 93, "KGISATP_CounterID": 93, "DepartmentCode": "93", "KGISWardID": null, "KGISVillageID": 15494, "KGISCode": null, "ATP_CounterName": "N6-KAMAKSHI PALYA", "KGISSectionID": 78 }, "geometry": { "type": "Point", "coordinates": [ 77.52517999326713, 12.988189885787273 ] } },
{ "type": "Feature", "properties": { "OBJECTID": 94, "KGISATP_CounterID": 94, "DepartmentCode": "94", "KGISWardID": null, "KGISVillageID": 15115, "KGISCode": null, "ATP_CounterName": "N8-PATTEGARPALYA", "KGISSectionID": 85 }, "geometry": { "type": "Point", "coordinates": [ 77.547689993033543, 12.974699884177967 ] } },
{ "type": "Feature", "properties": { "OBJECTID": 95, "KGISATP_CounterID": 95, "DepartmentCode": "95", "KGISWardID": null, "KGISVillageID": 15486, "KGISCode": null, "ATP_CounterName": "N8-PAPREDDY PALYA", "KGISSectionID": 108 }, "geometry": { "type": "Point", "coordinates": [ 77.503359993741185, 12.968069886433687 ] } },
{ "type": "Feature", "properties": { "OBJECTID": 96, "KGISATP_CounterID": 96, "DepartmentCode": "96", "KGISWardID": null, "KGISVillageID": 15486, "KGISCode": null, "ATP_CounterName": "N8-ULLALLA SUB DIV", "KGISSectionID": 108 }, "geometry": { "type": "Point", "coordinates": [ 77.504949993311669, 12.966779886654431 ] } },
{ "type": "Feature", "properties": { "OBJECTID": 97, "KGISATP_CounterID": 97, "DepartmentCode": "97", "KGISWardID": null, "KGISVillageID": 15678, "KGISCode": null, "ATP_CounterName": "W1-AVLAHALLY", "KGISSectionID": 230 }, "geometry": { "type": "Point", "coordinates": [ 77.538279993503451, 12.944659885148504 ] } },
{ "type": "Feature", "properties": { "OBJECTID": 98, "KGISATP_CounterID": 98, "DepartmentCode": "98", "KGISWardID": null, "KGISVillageID": 15099, "KGISCode": null, "ATP_CounterName": "W1-NAGENDRA BLOCK", "KGISSectionID": 99 }, "geometry": { "type": "Point", "coordinates": [ 77.551679993119961, 12.94202988460049 ] } },
{ "type": "Feature", "properties": { "OBJECTID": 99, "KGISATP_CounterID": 99, "DepartmentCode": "99", "KGISWardID": null, "KGISVillageID": 30092, "KGISCode": null, "ATP_CounterName": "W1-NR COLONY O&M", "KGISSectionID": 168 }, "geometry": { "type": "Point", "coordinates": [ 77.571919993074545, 12.942329882842612 ] } }
]
}
