{
"type": "FeatureCollection",
"name": "Approved Analytical Laboratory",
"crs": { "type": "name", "properties": { "name": "urn:ogc:def:crs:OGC:1.3:CRS84" } },
"features": [
{ "type": "Feature", "properties": { "OBJECTID": 1, "KGISAA_LABID": 1, "DepartmentCode": "AAL01", "KGISVillageID": 15475, "KGISWardID": null, "KGISCode": "29572055428031620000HFDCOPUSCRAAL0001", "AA_LABName": "M/s.Advinus Therapeutics Ltd." }, "geometry": { "type": "Point", "coordinates": [ 77.509611110772809, 13.026944444289947 ] } },
{ "type": "Feature", "properties": { "OBJECTID": 2, "KGISAA_LABID": 2, "DepartmentCode": "AAL02", "KGISVillageID": 14997, "KGISWardID": null, "KGISCode": "29572055456133570000HFDCOPUSCRAAL0001", "AA_LABName": "M/s.Anthem Biosciences Pvt. Ltd." }, "geometry": { "type": "Point", "coordinates": [ 77.684749999751787, 12.815777778052004 ] } },
{ "type": "Feature", "properties": { "OBJECTID": 3, "KGISAA_LABID": 3, "DepartmentCode": "AAL03", "KGISVillageID": 15054, "KGISWardID": null, "KGISCode": "29572055456131630000HFDCOPUSCRAAL0001", "AA_LABName": "M/s.Apotex Research Pvt. Ltd. " }, "geometry": { "type": "Point", "coordinates": [ 77.660861111517988, 12.810972222523468 ] } },
{ "type": "Feature", "properties": { "OBJECTID": 4, "KGISAA_LABID": 4, "DepartmentCode": "AAL04", "KGISVillageID": 15369, "KGISWardID": null, "KGISCode": "29572055428031620000HFDCOPUSCRAAL0002", "AA_LABName": "M/s.Auriga Research Pvt. Ltd." }, "geometry": { "type": "Point", "coordinates": [ 77.542999999953224, 13.010666666906396 ] } },
{ "type": "Feature", "properties": { "OBJECTID": 5, "KGISAA_LABID": 5, "DepartmentCode": "AAL05", "KGISVillageID": 15115, "KGISWardID": null, "KGISCode": "29572055428031620000HFDCOPUSCRAAL0003", "AA_LABName": "M/s.Bangalore Testing Laboratory" }, "geometry": { "type": "Point", "coordinates": [ 77.551027778092973, 12.979527778221904 ] } },
{ "type": "Feature", "properties": { "OBJECTID": 6, "KGISAA_LABID": 7, "DepartmentCode": "AAL07", "KGISVillageID": 15006, "KGISWardID": null, "KGISCode": "29572055456133550000HFDCOPUSCRAAL0001", "AA_LABName": "M/s.Biocon India Ltd." }, "geometry": { "type": "Point", "coordinates": [ 77.679388888838119, 12.835861110731035 ] } },
{ "type": "Feature", "properties": { "OBJECTID": 7, "KGISAA_LABID": 6, "DepartmentCode": "AAL06", "KGISVillageID": 15498, "KGISWardID": null, "KGISCode": "29572055428031620000HFDCOPUSCRAAL0004", "AA_LABName": "M/s.Bayir Chemicals." }, "geometry": { "type": "Point", "coordinates": [ 77.517249999629712, 13.006250000086791 ] } },
{ "type": "Feature", "properties": { "OBJECTID": 8, "KGISAA_LABID": 8, "DepartmentCode": "AAL08", "KGISVillageID": 15491, "KGISWardID": null, "KGISCode": "29572055428031620000HFDCOPUSCRAAL0005", "AA_LABName": "M/s.Bioneeds India Pvt. Ltd. " }, "geometry": { "type": "Point", "coordinates": [ 77.521611110716876, 13.036944444678165 ] } },
{ "type": "Feature", "properties": { "OBJECTID": 9, "KGISAA_LABID": 9, "DepartmentCode": "AAL09", "KGISVillageID": 15683, "KGISWardID": null, "KGISCode": "29572055428031620000HFDCOPUSCRAAL0006", "AA_LABName": "M/s.Cronus Research Labs Pvt. Ltd. " }, "geometry": { "type": "Point", "coordinates": [ 77.559916666485023, 12.888333333327434 ] } },
{ "type": "Feature", "properties": { "OBJECTID": 10, "KGISAA_LABID": 10, "DepartmentCode": "AAL10", "KGISVillageID": 15491, "KGISWardID": null, "KGISCode": "29572055428031620000HFDCOPUSCRAAL0007", "AA_LABName": "M/s.FMC India Pvt. Ltd. " }, "geometry": { "type": "Point", "coordinates": [ 77.529777777392781, 13.032083333130734 ] } },
{ "type": "Feature", "properties": { "OBJECTID": 11, "KGISAA_LABID": 11, "DepartmentCode": "AAL11", "KGISVillageID": 15541, "KGISWardID": null, "KGISCode": "29572055428031620000HFDCOPUSCRAAL0008", "AA_LABName": "M/s.GVK Bio Sciences Pvt. Ltd." }, "geometry": { "type": "Point", "coordinates": [ 77.587666667001784, 12.906972222652005 ] } },
{ "type": "Feature", "properties": { "OBJECTID": 12, "KGISAA_LABID": 12, "DepartmentCode": "AAL12", "KGISVillageID": 15056, "KGISWardID": null, "KGISCode": "29572055456133600000HFDCOPUSCRAAL0001", "AA_LABName": "M/s.Higher Pharmatech Pvt. Ltd. " }, "geometry": { "type": "Point", "coordinates": [ 77.641027777596378, 12.777166666584375 ] } },
{ "type": "Feature", "properties": { "OBJECTID": 13, "KGISAA_LABID": 13, "DepartmentCode": "AAL13", "KGISVillageID": 15518, "KGISWardID": null, "KGISCode": "29572055428031620000HFDCOPUSCRAAL0009", "AA_LABName": "M/s.IDRS Labs Pvt. Ltd. " }, "geometry": { "type": "Point", "coordinates": [ 77.636916666911688, 12.891833333386449 ] } },
{ "type": "Feature", "properties": { "OBJECTID": 14, "KGISAA_LABID": 14, "DepartmentCode": "AAL14", "KGISVillageID": 28431, "KGISWardID": null, "KGISCode": "29577055728031940000HFDCOPUSCRAAL0001", "AA_LABName": "M/s.J.S.S. College of  Pharmacy." }, "geometry": { "type": "Point", "coordinates": [ 76.654888889348214, 12.34444444448955 ] } },
{ "type": "Feature", "properties": { "OBJECTID": 15, "KGISAA_LABID": 15, "DepartmentCode": "AAL15", "KGISVillageID": 19586, "KGISWardID": null, "KGISCode": "29571055378031570000HFDCOPUSCRAAL0001", "AA_LABName": "M/s.Liveon Biolabs Pvt. Ltd. " }, "geometry": { "type": "Point", "coordinates": [ 77.109472221957517, 13.382166666468743 ] } },
{ "type": "Feature", "properties": { "OBJECTID": 16, "KGISAA_LABID": 16, "DepartmentCode": "AAL16", "KGISVillageID": 20620, "KGISWardID": null, "KGISCode": "29583056046256950000HFDCOPUSCRAAL0001", "AA_LABName": "M/s.Lyrus Life Sciences Pvt. Ltd. " }, "geometry": { "type": "Point", "coordinates": [ 77.822583333791556, 13.123472222613803 ] } },
{ "type": "Feature", "properties": { "OBJECTID": 17, "KGISAA_LABID": 17, "DepartmentCode": "AAL17", "KGISVillageID": 14997, "KGISWardID": null, "KGISCode": "29572055456133570000HFDCOPUSCRAAL0002", "AA_LABName": "M/s.Medreich Ltd." }, "geometry": { "type": "Point", "coordinates": [ 77.684055555748756, 12.813694444012716 ] } },
{ "type": "Feature", "properties": { "OBJECTID": 18, "KGISAA_LABID": 18, "DepartmentCode": "AAL18", "KGISVillageID": 15045, "KGISWardID": null, "KGISCode": "29572055456131480000HFDCOPUSCRAAL0001", "AA_LABName": "M/s.Mylan Laboratories Ltd." }, "geometry": { "type": "Point", "coordinates": [ 77.62088888888691, 12.794555555882908 ] } },
{ "type": "Feature", "properties": { "OBJECTID": 19, "KGISAA_LABID": 19, "DepartmentCode": "AAL19", "KGISVillageID": 15508, "KGISWardID": null, "KGISCode": "29572055428031620000HFDCOPUSCRAAL0010", "AA_LABName": "M/s.Mylan Laboratories Ltd." }, "geometry": { "type": "Point", "coordinates": [ 77.602555555976565, 12.895722221842931 ] } },
{ "type": "Feature", "properties": { "OBJECTID": 20, "KGISAA_LABID": 20, "DepartmentCode": "AAL20", "KGISVillageID": 15508, "KGISWardID": null, "KGISCode": "29572055428031620000HFDCOPUSCRAAL0011", "AA_LABName": "M/s.Nuwill Research and Innovations Pvt. Ltd. " }, "geometry": { "type": "Point", "coordinates": [ 77.601583333635077, 12.903472222605178 ] } },
{ "type": "Feature", "properties": { "OBJECTID": 21, "KGISAA_LABID": 21, "DepartmentCode": "AAL21", "KGISVillageID": 15475, "KGISWardID": null, "KGISCode": "29572055428031620000HFDCOPUSCRAAL0012", "AA_LABName": "M/s.PADM Laboratories Pvt. Ltd. " }, "geometry": { "type": "Point", "coordinates": [ 77.50730555530113, 13.021222221923077 ] } },
{ "type": "Feature", "properties": { "OBJECTID": 22, "KGISAA_LABID": 23, "DepartmentCode": "AAL23", "KGISVillageID": 15143, "KGISWardID": null, "KGISCode": "29572055428031620000HFDCOPUSCRAAL0014", "AA_LABName": "M/s.Ramaiah Drugs & Allied Products Testing Laboratory" }, "geometry": { "type": "Point", "coordinates": [ 77.564694444156473, 13.030694444089756 ] } },
{ "type": "Feature", "properties": { "OBJECTID": 23, "KGISAA_LABID": 24, "DepartmentCode": "AAL24", "KGISVillageID": 15488, "KGISWardID": null, "KGISCode": "29572055428031620000HFDCOPUSCRAAL0015", "AA_LABName": "M/s.Robust Materils Technology Pvt. Ltd. " }, "geometry": { "type": "Point", "coordinates": [ 77.512472222202447, 12.960805555606337 ] } },
{ "type": "Feature", "properties": { "OBJECTID": 24, "KGISAA_LABID": 22, "DepartmentCode": "AAL22", "KGISVillageID": 15095, "KGISWardID": null, "KGISCode": "29572055428031620000HFDCOPUSCRAAL0013", "AA_LABName": "M/s.Ramaiah Advanced Testing Laboratory" }, "geometry": { "type": "Point", "coordinates": [ 77.569861111483391, 13.028388888910383 ] } },
{ "type": "Feature", "properties": { "OBJECTID": 25, "KGISAA_LABID": 25, "DepartmentCode": "AAL25", "KGISVillageID": 26164, "KGISWardID": null, "KGISCode": "29575055618031810000HFDCOPUSCRAAL0001", "AA_LABName": "M/s.Sequent Research Ltd. " }, "geometry": { "type": "Point", "coordinates": [ 74.825472221769459, 12.951722222338365 ] } },
{ "type": "Feature", "properties": { "OBJECTID": 26, "KGISAA_LABID": 26, "DepartmentCode": "AAL26", "KGISVillageID": 15056, "KGISWardID": null, "KGISCode": "29572055456133600000HFDCOPUSCRAAL0002", "AA_LABName": "M/s.Sequent Research Ltd. " }, "geometry": { "type": "Point", "coordinates": [ 77.640888888538427, 12.784722222050235 ] } },
{ "type": "Feature", "properties": { "OBJECTID": 27, "KGISAA_LABID": 29, "DepartmentCode": "AAL29", "KGISVillageID": 21427, "KGISWardID": null, "KGISCode": "29572055428031620000HFDCOPUSCRAAL0016", "AA_LABName": "M/s.Shriram Institute For Industrial Research." }, "geometry": { "type": "Point", "coordinates": [ 77.732388888633352, 12.992750000121589 ] } },
{ "type": "Feature", "properties": { "OBJECTID": 28, "KGISAA_LABID": 27, "DepartmentCode": "AAL27", "KGISVillageID": 20620, "KGISWardID": null, "KGISCode": "29583056046256950000HFDCOPUSCRAAL0002", "AA_LABName": "M/s.Shiva Analyticals (I) Pvt. Ltd. " }, "geometry": { "type": "Point", "coordinates": [ 77.82813888888144, 13.121416666241412 ] } },
{ "type": "Feature", "properties": { "OBJECTID": 29, "KGISAA_LABID": 28, "DepartmentCode": "AAL28", "KGISVillageID": 15013, "KGISWardID": null, "KGISCode": "29572055456132740000HFDCOPUSCRAAL0001", "AA_LABName": "M/s.Shrideep Labs Private  Ltd. " }, "geometry": { "type": "Point", "coordinates": [ 77.742583333747518, 12.786944444724298 ] } },
{ "type": "Feature", "properties": { "OBJECTID": 30, "KGISAA_LABID": 30, "DepartmentCode": "AAL30", "KGISVillageID": 15054, "KGISWardID": null, "KGISCode": "29572055456131630000HFDCOPUSCRAAL0002", "AA_LABName": "M/s.Stabicon Life Sciences Pvt. Ltd. " }, "geometry": { "type": "Point", "coordinates": [ 77.663638888612752, 12.816999999574351 ] } },
{ "type": "Feature", "properties": { "OBJECTID": 31, "KGISAA_LABID": 31, "DepartmentCode": "AAL31", "KGISVillageID": 21210, "KGISWardID": null, "KGISCode": "29572055456132970000HFDCOPUSCRAAL0001", "AA_LABName": "M/s.Strides Arcolab  Ltd. " }, "geometry": { "type": "Point", "coordinates": [ 77.667999999679353, 12.736888889282739 ] } },
{ "type": "Feature", "properties": { "OBJECTID": 32, "KGISAA_LABID": 32, "DepartmentCode": "AAL32", "KGISVillageID": 15054, "KGISWardID": null, "KGISCode": "29572055456131630000HFDCOPUSCRAAL0003", "AA_LABName": "M/s.Syngene International  Ltd. " }, "geometry": { "type": "Point", "coordinates": [ 77.662888888758346, 12.806888889039893 ] } },
{ "type": "Feature", "properties": { "OBJECTID": 33, "KGISAA_LABID": 33, "DepartmentCode": "AAL33", "KGISVillageID": 15054, "KGISWardID": null, "KGISCode": "29572055456131630000HFDCOPUSCRAAL0004", "AA_LABName": "M/s.Syngene International  Ltd. " }, "geometry": { "type": "Point", "coordinates": [ 77.662888888758346, 12.806888889039893 ] } },
{ "type": "Feature", "properties": { "OBJECTID": 34, "KGISAA_LABID": 34, "DepartmentCode": "AAL34", "KGISVillageID": 28359, "KGISWardID": null, "KGISCode": "29577055726188260000HFDCOPUSCRAAL0001", "AA_LABName": "M/s.Vipragen Biosciences Pvt. Ltd. " }, "geometry": { "type": "Point", "coordinates": [ 76.584833333761736, 12.35675000023814 ] } },
{ "type": "Feature", "properties": { "OBJECTID": 35, "KGISAA_LABID": 35, "DepartmentCode": "AAL35", "KGISVillageID": 15498, "KGISWardID": null, "KGISCode": "29572055428031620000HFDCOPUSCRAAL0017", "AA_LABName": "M/s.Vsix Analytical Labs Pvt. Ltd. " }, "geometry": { "type": "Point", "coordinates": [ 77.510722222341485, 12.991416666315386 ] } },
{ "type": "Feature", "properties": { "OBJECTID": 36, "KGISAA_LABID": 36, "DepartmentCode": "AAL36", "KGISVillageID": 15688, "KGISWardID": null, "KGISCode": "29572055428031620000HFDCOPUSCRAAL0018", "AA_LABName": "M/s.Wexford Laboratories Pvt. Ltd. " }, "geometry": { "type": "Point", "coordinates": [ 77.547722222413654, 12.935944444811936 ] } }
]
}
