{
"type": "FeatureCollection",
"name": "Engineering Colleges",
"crs": { "type": "name", "properties": { "name": "urn:ogc:def:crs:OGC:1.3:CRS84" } },
"features": [
{ "type": "Feature", "properties": { "OBJECTID": 6363, "KGISHE_ClgID": 168, "DepartmentCode": "C-1230", "KGISWardID": null, "KGISVillageID": 25181, "KGISCode": "29578055776196110000HECEDINCOLOCO0001", "HE_ClgName": "Ekalavya Institute of Technology, Chamarajanagar", "Category": "Engineering College" }, "geometry": { "type": "Point", "coordinates": [ 76.897208332840648, 12.079255555569386 ] } },
{ "type": "Feature", "properties": { "OBJECTID": 6364, "KGISHE_ClgID": 169, "DepartmentCode": "C-1231", "KGISWardID": null, "KGISVillageID": 15061, "KGISCode": "29572055456131340000HECEDINCOLOCO0001", "HE_ClgName": "A M C College of Engineering, Bangalore", "Category": "Engineering College" }, "geometry": { "type": "Point", "coordinates": [ 77.588883333072701, 12.82875000014629 ] } },
{ "type": "Feature", "properties": { "OBJECTID": 6365, "KGISHE_ClgID": 170, "DepartmentCode": "C-1232", "KGISWardID": null, "KGISVillageID": 15514, "KGISCode": "29572055436130580000HECEDINCOLOCO0001", "HE_ClgName": "P E S School of Engineering, Bangalore", "Category": "Engineering College" }, "geometry": { "type": "Point", "coordinates": [ 77.664724999922825, 12.861483333139072 ] } },
{ "type": "Feature", "properties": { "OBJECTID": 6449, "KGISHE_ClgID": 171, "DepartmentCode": "C-1233", "KGISWardID": null, "KGISVillageID": 15347, "KGISCode": "29572055428031620000HECEDINCOLOCO0001", "HE_ClgName": "V.T.U Extension Centre, Reva Institute of Technology & Management, Bangalore", "Category": "Engineering College" }, "geometry": { "type": "Point", "coordinates": [ 77.635708333372989, 13.115477777807689 ] } },
{ "type": "Feature", "properties": { "OBJECTID": 7695, "KGISHE_ClgID": 172, "DepartmentCode": "C-1234", "KGISWardID": null, "KGISVillageID": 936, "KGISCode": "29555054388030330000HECEDINCOLOCO0007", "HE_ClgName": "Gogte Institute of Technology, Belgaum (Qip Centre)", "Category": "Engineering College" }, "geometry": { "type": "Point", "coordinates": [ 74.48736944374788, 15.814980555587757 ] } },
{ "type": "Feature", "properties": { "OBJECTID": 6366, "KGISHE_ClgID": 173, "DepartmentCode": "C-1235", "KGISWardID": null, "KGISVillageID": 15277, "KGISCode": "29572055426128340000HECEDINCOLOCO0001", "HE_ClgName": "Sai Vidya Institute of Technology, Bangalore", "Category": "Engineering College" }, "geometry": { "type": "Point", "coordinates": [ 77.558566666605884, 13.167613888830148 ] } },
{ "type": "Feature", "properties": { "OBJECTID": 7697, "KGISHE_ClgID": 174, "DepartmentCode": "C-1236", "KGISWardID": null, "KGISVillageID": 26075, "KGISCode": "29575055616174970000HECEDINCOLOCO0001", "HE_ClgName": "Bearys Institute of Technology, Mangalore", "Category": "Engineering College" }, "geometry": { "type": "Point", "coordinates": [ 74.955458332756209, 12.845861110961064 ] } },
{ "type": "Feature", "properties": { "OBJECTID": 6367, "KGISHE_ClgID": 175, "DepartmentCode": "C-1237", "KGISWardID": null, "KGISVillageID": 1043, "KGISCode": "29555054335971920000HECEDINCOLOCO0003", "HE_ClgName": "KLES College of Engineering & Technology, Chikkodi", "Category": "Engineering College" }, "geometry": { "type": "Point", "coordinates": [ 74.610986111284419, 16.437669443611707 ] } },
{ "type": "Feature", "properties": { "OBJECTID": 6450, "KGISHE_ClgID": 176, "DepartmentCode": "C-1238", "KGISWardID": null, "KGISVillageID": 14765, "KGISCode": "29569055246088960000HECEDINCOLOCO0001", "HE_ClgName": "V.T.U Extension Center, N M A M Institute of Technology, Nitte", "Category": "Engineering College" }, "geometry": { "type": "Point", "coordinates": [ 74.933972222346085, 13.182991667013729 ] } },
{ "type": "Feature", "properties": { "OBJECTID": 6368, "KGISHE_ClgID": 177, "DepartmentCode": "C-1239", "KGISWardID": null, "KGISVillageID": 25878, "KGISCode": "29575055638031840000HECEDINCOLOCO0001", "HE_ClgName": "Prasaanna College of Engineering & Technology, Beltangadi", "Category": "Engineering College" }, "geometry": { "type": "Point", "coordinates": [ 75.281913888650962, 12.990694444061095 ] } },
{ "type": "Feature", "properties": { "OBJECTID": 6369, "KGISHE_ClgID": 178, "DepartmentCode": "C-1240", "KGISWardID": null, "KGISVillageID": 14997, "KGISCode": "29572055456133570000HECEDINCOLOCO0001", "HE_ClgName": "B T L Institute of Technology Management, Bangalore", "Category": "Engineering College" }, "geometry": { "type": "Point", "coordinates": [ 77.694261110663277, 12.810180555895608 ] } },
{ "type": "Feature", "properties": { "OBJECTID": 6370, "KGISHE_ClgID": 179, "DepartmentCode": "C-1241", "KGISWardID": null, "KGISVillageID": 19693, "KGISCode": "29571055376113950000HECEDINCOLOCO0001", "HE_ClgName": "H M S Institute of Technology, Tumkur", "Category": "Engineering College" }, "geometry": { "type": "Point", "coordinates": [ 77.164441667129964, 13.297141666896307 ] } },
{ "type": "Feature", "properties": { "OBJECTID": 6371, "KGISHE_ClgID": 180, "DepartmentCode": "C-1242", "KGISWardID": null, "KGISVillageID": 4237, "KGISCode": "29559054618030670000HECEDINCOLOCO0001", "HE_ClgName": "Navodaya Institute of Technology, Raichur", "Category": "Engineering College" }, "geometry": { "type": "Point", "coordinates": [ 77.375664180571221, 16.190242778310356 ] } },
{ "type": "Feature", "properties": { "OBJECTID": 6372, "KGISHE_ClgID": 181, "DepartmentCode": "C-1243", "KGISWardID": null, "KGISVillageID": 24358, "KGISCode": "29573055476137210000HECEDINCOLOCO0001", "HE_ClgName": "B G S Inst. of Technology, Mandya", "Category": "Engineering College" }, "geometry": { "type": "Point", "coordinates": [ 76.727163888818936, 12.964922221834483 ] } },
{ "type": "Feature", "properties": { "OBJECTID": 6426, "KGISHE_ClgID": 182, "DepartmentCode": "C-1244", "KGISWardID": null, "KGISVillageID": 28483, "KGISCode": "29577055726187860000HECEDINCOLOCO0001", "HE_ClgName": "Academy For Technical And Management Excellence, Mysore", "Category": "Engineering College" }, "geometry": { "type": "Point", "coordinates": [ 76.770561110885424, 12.314486110947989 ] } },
{ "type": "Feature", "properties": { "OBJECTID": 6373, "KGISHE_ClgID": 183, "DepartmentCode": "C-1245", "KGISWardID": null, "KGISVillageID": 2101, "KGISCode": "29558054545997550000HECEDINCOLOCO0001", "HE_ClgName": "Basava Kalyan Engineering College, Basava Kalyan", "Category": "Engineering College" }, "geometry": { "type": "Point", "coordinates": [ 76.972705556444225, 17.81451944418383 ] } },
{ "type": "Feature", "properties": { "OBJECTID": 6374, "KGISHE_ClgID": 184, "DepartmentCode": "C-1246", "KGISWardID": null, "KGISVillageID": 2390, "KGISCode": "29558054578030600000HECEDINCOLOCO0001", "HE_ClgName": "Guru Nanak Dev Engineering College, Bidar", "Category": "Engineering College" }, "geometry": { "type": "Point", "coordinates": [ 77.511033333203883, 17.896880555709146 ] } },
{ "type": "Feature", "properties": { "OBJECTID": 6451, "KGISHE_ClgID": 185, "DepartmentCode": "C-1247", "KGISWardID": null, "KGISVillageID": 28471, "KGISCode": "29577055728031940000HECEDINCOLOCO0001", "HE_ClgName": "Sri Jayachamarajendra College of Engineering, Mysore (Qip Centre)", "Category": "Engineering College" }, "geometry": { "type": "Point", "coordinates": [ 76.613625000207406, 12.31323699982293 ] } },
{ "type": "Feature", "properties": { "OBJECTID": 7598, "KGISHE_ClgID": 186, "DepartmentCode": "C-1248", "KGISWardID": null, "KGISVillageID": 15672, "KGISCode": "29572055436130500000HECEDINCOLOCO0001", "HE_ClgName": "Acharya Pathashala Rural College of Engg., Bangalore", "Category": "Engineering College" }, "geometry": { "type": "Point", "coordinates": [ 77.496536111170045, 12.785672222368676 ] } },
{ "type": "Feature", "properties": { "OBJECTID": 7599, "KGISHE_ClgID": 187, "DepartmentCode": "C-1249", "KGISWardID": null, "KGISVillageID": 21316, "KGISCode": "29572055428031620000HECEDINCOLOCO0002", "HE_ClgName": "M V J College of Engineering, Bangalore", "Category": "Engineering College" }, "geometry": { "type": "Point", "coordinates": [ 77.761827777795403, 12.984036110574298 ] } },
{ "type": "Feature", "properties": { "OBJECTID": 7600, "KGISHE_ClgID": 188, "DepartmentCode": "C-1250", "KGISWardID": null, "KGISVillageID": 26850, "KGISCode": "29574055606173800000HECEDINCOLOCO0001", "HE_ClgName": "Bahubali College of Engineering, Shravanabelagola", "Category": "Engineering College" }, "geometry": { "type": "Point", "coordinates": [ 76.473003999548396, 12.857635999978035 ] } },
{ "type": "Feature", "properties": { "OBJECTID": 6473, "KGISHE_ClgID": 189, "DepartmentCode": "C-1251", "KGISWardID": null, "KGISVillageID": 15498, "KGISCode": "29572055428031620000HECEDINCOLOCO0003", "HE_ClgName": "Visvesvaraya Technological University, Regional Office, Bangalore", "Category": "Engineering College" }, "geometry": { "type": "Point", "coordinates": [ 77.505611113014368, 12.980250000601217 ] } },
{ "type": "Feature", "properties": { "OBJECTID": 7601, "KGISHE_ClgID": 190, "DepartmentCode": "C-1252", "KGISWardID": null, "KGISVillageID": 6676, "KGISCode": "29562054758030830000HECEDINCOLOCO0001", "HE_ClgName": "KLE Institute of Technology, Hubli", "Category": "Engineering College" }, "geometry": { "type": "Point", "coordinates": [ 75.081647222453796, 15.351880555612652 ] } },
{ "type": "Feature", "properties": { "OBJECTID": 7602, "KGISHE_ClgID": 191, "DepartmentCode": "C-1253", "KGISWardID": null, "KGISVillageID": 15688, "KGISCode": "29572055428031620000HECEDINCOLOCO0004", "HE_ClgName": "Global Academy of Technology, Bangalore", "Category": "Engineering College" }, "geometry": { "type": "Point", "coordinates": [ 77.526530556272263, 12.926758332553851 ] } },
{ "type": "Feature", "properties": { "OBJECTID": 7603, "KGISHE_ClgID": 192, "DepartmentCode": "C-1255", "KGISWardID": null, "KGISVillageID": 29840, "KGISCode": "29584056066261860000HECEDINCOLOCO0001", "HE_ClgName": "Jnana Vikas Institute of Technology, Bangalore", "Category": "Engineering College" }, "geometry": { "type": "Point", "coordinates": [ 77.39547222241508, 12.798994444266604 ] } },
{ "type": "Feature", "properties": { "OBJECTID": 7604, "KGISHE_ClgID": 193, "DepartmentCode": "C-1256", "KGISWardID": null, "KGISVillageID": 26314, "KGISCode": "29575055658031860000HECEDINCOLOCO0001", "HE_ClgName": "K V G College of Engineering, Sullia", "Category": "Engineering College" }, "geometry": { "type": "Point", "coordinates": [ 75.384236110721091, 12.553966667410409 ] } },
{ "type": "Feature", "properties": { "OBJECTID": 7605, "KGISHE_ClgID": 194, "DepartmentCode": "C-1257", "KGISWardID": null, "KGISVillageID": 21337, "KGISCode": "29572055446131250000HECEDINCOLOCO0001", "HE_ClgName": "Vijaya Vittal Institute  of Technology,  Bangalore", "Category": "Engineering College" }, "geometry": { "type": "Point", "coordinates": [ 77.665894444420942, 13.076933333223112 ] } },
{ "type": "Feature", "properties": { "OBJECTID": 7606, "KGISHE_ClgID": 195, "DepartmentCode": "C-1258", "KGISWardID": null, "KGISVillageID": 15586, "KGISCode": "29572055436130620000HECEDINCOLOCO0001", "HE_ClgName": "Don Bosco Institute of Technology, Bangalore", "Category": "Engineering College" }, "geometry": { "type": "Point", "coordinates": [ 77.444300000338941, 12.881188888583013 ] } },
{ "type": "Feature", "properties": { "OBJECTID": 7698, "KGISHE_ClgID": 196, "DepartmentCode": "C-1259", "KGISWardID": null, "KGISVillageID": 21337, "KGISCode": "29572055446131250000HECEDINCOLOCO0002", "HE_ClgName": "Alpha College of Engineering, Bangalore", "Category": "Engineering College" }, "geometry": { "type": "Point", "coordinates": [ 77.665505556295813, 13.076969443705075 ] } },
{ "type": "Feature", "properties": { "OBJECTID": 7607, "KGISHE_ClgID": 197, "DepartmentCode": "C-1260", "KGISWardID": null, "KGISVillageID": 15007, "KGISCode": "29572055456132600000HECEDINCOLOCO0001", "HE_ClgName": "Bangalore College of Engineering & Tech, Bangalore", "Category": "Engineering College" }, "geometry": { "type": "Point", "coordinates": [ 77.710100000019665, 12.811161111094055 ] } },
{ "type": "Feature", "properties": { "OBJECTID": 7608, "KGISHE_ClgID": 198, "DepartmentCode": "C-1261", "KGISWardID": null, "KGISVillageID": 30106, "KGISCode": "29558054558030580000HECEDINCOLOCO0001", "HE_ClgName": "Rural Engineering College, Bhalki", "Category": "Engineering College" }, "geometry": { "type": "Point", "coordinates": [ 77.212133333431424, 18.034161111017987 ] } },
{ "type": "Feature", "properties": { "OBJECTID": 7609, "KGISHE_ClgID": 199, "DepartmentCode": "C-1262", "KGISWardID": null, "KGISVillageID": 15158, "KGISCode": "29572055428031620000HECEDINCOLOCO0005", "HE_ClgName": "BMS College of Engineering, Bangalore", "Category": "Engineering College" }, "geometry": { "type": "Point", "coordinates": [ 77.56611111114843, 12.942230555628639 ] } },
{ "type": "Feature", "properties": { "OBJECTID": 7610, "KGISHE_ClgID": 200, "DepartmentCode": "C-1263", "KGISWardID": null, "KGISVillageID": 28460, "KGISCode": "29577055728031940000HECEDINCOLOCO0002", "HE_ClgName": "National Institute of Engineering, Mysore", "Category": "Engineering College" }, "geometry": { "type": "Point", "coordinates": [ 76.641386111188254, 12.283772221584643 ] } },
{ "type": "Feature", "properties": { "OBJECTID": 7611, "KGISHE_ClgID": 201, "DepartmentCode": "C-1264", "KGISWardID": null, "KGISVillageID": 15086, "KGISCode": "29572055428031620000HECEDINCOLOCO0006", "HE_ClgName": "Atria Institute of Technology, Bangalore", "Category": "Engineering College" }, "geometry": { "type": "Point", "coordinates": [ 77.591022221775305, 13.033755555972323 ] } },
{ "type": "Feature", "properties": { "OBJECTID": 7612, "KGISHE_ClgID": 202, "DepartmentCode": "C-1265", "KGISWardID": null, "KGISVillageID": 26047, "KGISCode": "29575055616175110000HECEDINCOLOCO0001", "HE_ClgName": "Sahyadri Institute of Technology & Management, Mangalore", "Category": "Engineering College" }, "geometry": { "type": "Point", "coordinates": [ 74.924291667266345, 12.865816666834201 ] } },
{ "type": "Feature", "properties": { "OBJECTID": 7613, "KGISHE_ClgID": 203, "DepartmentCode": "C-1266", "KGISWardID": null, "KGISVillageID": 5913, "KGISCode": "29566055056055850000HECEDINCOLOCO0001", "HE_ClgName": "S J M Institute of Technology, Chitradurga", "Category": "Engineering College" }, "geometry": { "type": "Point", "coordinates": [ 76.385691667118039, 14.238850000345955 ] } },
{ "type": "Feature", "properties": { "OBJECTID": 7614, "KGISHE_ClgID": 204, "DepartmentCode": "C-1267", "KGISWardID": null, "KGISVillageID": 4222, "KGISCode": "29559054616007780000HECEDINCOLOCO0001", "HE_ClgName": "Govt. Engineering College, Raichur", "Category": "Engineering College" }, "geometry": { "type": "Point", "coordinates": [ 77.357277778197215, 16.272327777901193 ] } },
{ "type": "Feature", "properties": { "OBJECTID": 7615, "KGISHE_ClgID": 205, "DepartmentCode": "C-1268", "KGISWardID": null, "KGISVillageID": 21386, "KGISCode": "29572055428031620000HECEDINCOLOCO0007", "HE_ClgName": "Sea College of Engineering & Technology, Bangalore", "Category": "Engineering College" }, "geometry": { "type": "Point", "coordinates": [ 77.714836111277464, 13.008494444074392 ] } },
{ "type": "Feature", "properties": { "OBJECTID": 7616, "KGISHE_ClgID": 206, "DepartmentCode": "C-1269", "KGISWardID": null, "KGISVillageID": 15594, "KGISCode": "29572055428031620000HECEDINCOLOCO0008", "HE_ClgName": "R V College of Engineering, Bangalore", "Category": "Engineering College" }, "geometry": { "type": "Point", "coordinates": [ 77.499449999584868, 12.923425000413463 ] } },
{ "type": "Feature", "properties": { "OBJECTID": 7696, "KGISHE_ClgID": 207, "DepartmentCode": "C-1270", "KGISWardID": null, "KGISVillageID": 15074, "KGISCode": "29572055428031620000HECEDINCOLOCO0009", "HE_ClgName": "V.T.U Extension  Center, Karnataka State Remote Sensing Application Centre, Bangalore", "Category": "Engineering College" }, "geometry": { "type": "Point", "coordinates": [ 77.592136110624963, 12.954336110714298 ] } },
{ "type": "Feature", "properties": { "OBJECTID": 6375, "KGISHE_ClgID": 208, "DepartmentCode": "C-1271", "KGISWardID": null, "KGISVillageID": 15582, "KGISCode": "29572055428031620000HECEDINCOLOCO0010", "HE_ClgName": "S J B Institute of Technology, Bangalore", "Category": "Engineering College" }, "geometry": { "type": "Point", "coordinates": [ 77.495927778041946, 12.899800000445364 ] } },
{ "type": "Feature", "properties": { "OBJECTID": 7655, "KGISHE_ClgID": 209, "DepartmentCode": "C-1272", "KGISWardID": null, "KGISVillageID": 28471, "KGISCode": "29577055728031940000HECEDINCOLOCO0003", "HE_ClgName": "Sri Jayachamrajendra College of Engg Even.),  Mysore", "Category": "Engineering College" }, "geometry": { "type": "Point", "coordinates": [ 76.613538889354643, 12.313266666677096 ] } },
{ "type": "Feature", "properties": { "OBJECTID": 6376, "KGISHE_ClgID": 210, "DepartmentCode": "C-1273", "KGISWardID": null, "KGISVillageID": 28443, "KGISCode": "29577055726188330000HECEDINCOLOCO0001", "HE_ClgName": "Vidya Vardhaka College of Engineering, Mysore", "Category": "Engineering College" }, "geometry": { "type": "Point", "coordinates": [ 76.618824999827808, 12.336197222137175 ] } },
{ "type": "Feature", "properties": { "OBJECTID": 7656, "KGISHE_ClgID": 211, "DepartmentCode": "C-1274", "KGISWardID": null, "KGISVillageID": 27302, "KGISCode": "29576055678031890000HECEDINCOLOCO0001", "HE_ClgName": "Govt. Engineering College, Kushalanagar", "Category": "Engineering College" }, "geometry": { "type": "Point", "coordinates": [ 75.951078999550646, 12.452901999767706 ] } },
{ "type": "Feature", "properties": { "OBJECTID": 6377, "KGISHE_ClgID": 212, "DepartmentCode": "C-1275", "KGISWardID": null, "KGISVillageID": 20308, "KGISCode": "29583056026251140000HECEDINCOLOCO0001", "HE_ClgName": "R L Jalappa Institute of Technology, Doddaballapura", "Category": "Engineering College" }, "geometry": { "type": "Point", "coordinates": [ 77.52327500032014, 13.300005555893398 ] } },
{ "type": "Feature", "properties": { "OBJECTID": 6378, "KGISHE_ClgID": 213, "DepartmentCode": "C-1276", "KGISWardID": null, "KGISVillageID": 15425, "KGISCode": "29572055428031620000HECEDINCOLOCO0011", "HE_ClgName": "K N S Institute of Technology, Bangalore", "Category": "Engineering College" }, "geometry": { "type": "Point", "coordinates": [ 77.636788889338703, 13.088313888952943 ] } },
{ "type": "Feature", "properties": { "OBJECTID": 6379, "KGISHE_ClgID": 214, "DepartmentCode": "C-1277", "KGISWardID": null, "KGISVillageID": 26051, "KGISCode": "29575055616175090000HECEDINCOLOCO0001", "HE_ClgName": "Saint Joseph College of Engg. & Tech., Dakshina Kannada", "Category": "Engineering College" }, "geometry": { "type": "Point", "coordinates": [ 74.899319444394877, 12.910722222172854 ] } },
{ "type": "Feature", "properties": { "OBJECTID": 7657, "KGISHE_ClgID": 215, "DepartmentCode": "C-1278", "KGISWardID": null, "KGISVillageID": 24957, "KGISCode": "29573055496142940000HECEDINCOLOCO0001", "HE_ClgName": "Maharaja Institute of Tech., Mysore", "Category": "Engineering College" }, "geometry": { "type": "Point", "coordinates": [ 76.689002777570721, 12.366258333396143 ] } },
{ "type": "Feature", "properties": { "OBJECTID": 6380, "KGISHE_ClgID": 216, "DepartmentCode": "C-1279", "KGISWardID": null, "KGISVillageID": 19626, "KGISCode": "29571055378031570000HECEDINCOLOCO0001", "HE_ClgName": "Shridevi Institute of Engg, & Technology, Tumkur", "Category": "Engineering College" }, "geometry": { "type": "Point", "coordinates": [ 77.096772221981823, 13.375130555579915 ] } },
{ "type": "Feature", "properties": { "OBJECTID": 6381, "KGISHE_ClgID": 217, "DepartmentCode": "C-1280", "KGISWardID": null, "KGISVillageID": 3379, "KGISCode": "29579055828032070000HECEDINCOLOCO0001", "HE_ClgName": "K C T Engineering College, Gulbarga", "Category": "Engineering College" }, "geometry": { "type": "Point", "coordinates": [ 76.854175000298824, 17.35455833330494 ] } },
{ "type": "Feature", "properties": { "OBJECTID": 6382, "KGISHE_ClgID": 218, "DepartmentCode": "C-1281", "KGISWardID": null, "KGISVillageID": 26048, "KGISCode": "29575055616175120000HECEDINCOLOCO0001", "HE_ClgName": "Srinivas Institute of Technology, Magalore", "Category": "Engineering College" }, "geometry": { "type": "Point", "coordinates": [ 74.93920555593121, 12.87523611132368 ] } },
{ "type": "Feature", "properties": { "OBJECTID": 6383, "KGISHE_ClgID": 220, "DepartmentCode": "C-1283", "KGISWardID": null, "KGISVillageID": 15710, "KGISCode": "29572055428031620000HECEDINCOLOCO0012", "HE_ClgName": "K S Institute of Technology, Bangalore", "Category": "Engineering College" }, "geometry": { "type": "Point", "coordinates": [ 77.544866666819289, 12.879247222436405 ] } },
{ "type": "Feature", "properties": { "OBJECTID": 6384, "KGISHE_ClgID": 221, "DepartmentCode": "C-1284", "KGISWardID": null, "KGISVillageID": 26123, "KGISCode": "29575055618031800000HECEDINCOLOCO0001", "HE_ClgName": "Alvas Institute of Engineering And Technology, Moodbidri", "Category": "Engineering College" }, "geometry": { "type": "Point", "coordinates": [ 74.997796999954801, 13.056571000317081 ] } },
{ "type": "Feature", "properties": { "OBJECTID": 6385, "KGISHE_ClgID": 222, "DepartmentCode": "C-1285", "KGISWardID": null, "KGISVillageID": 15522, "KGISCode": "29572055428031620000HECEDINCOLOCO0013", "HE_ClgName": "T. John Institute of Technology, Bangalore", "Category": "Engineering College" }, "geometry": { "type": "Point", "coordinates": [ 77.594663889182328, 12.850902778136971 ] } },
{ "type": "Feature", "properties": { "OBJECTID": 7710, "KGISHE_ClgID": 223, "DepartmentCode": "C-1286", "KGISWardID": null, "KGISVillageID": 30980, "KGISCode": "29582055976237080000HECEDINCOLOCO0001", "HE_ClgName": "Achutha Institute of Technology, Chikkaballapura", "Category": "Engineering College" }, "geometry": { "type": "Point", "coordinates": [ 77.72230555520359, 13.676500000368936 ] } },
{ "type": "Feature", "properties": { "OBJECTID": 6386, "KGISHE_ClgID": 224, "DepartmentCode": "C-1287", "KGISWardID": null, "KGISVillageID": 19558, "KGISCode": "29571055376113520000HECEDINCOLOCO0001", "HE_ClgName": "Akshaya Institute of Technology, Tumkur", "Category": "Engineering College" }, "geometry": { "type": "Point", "coordinates": [ 77.148069443748028, 13.422958333388282 ] } },
{ "type": "Feature", "properties": { "OBJECTID": 6387, "KGISHE_ClgID": 225, "DepartmentCode": "C-1288", "KGISWardID": null, "KGISVillageID": 15524, "KGISCode": "29572055428031620000HECEDINCOLOCO0014", "HE_ClgName": "Vemana Institute of Technology, Bangalore", "Category": "Engineering College" }, "geometry": { "type": "Point", "coordinates": [ 77.622466666868718, 12.929650000413115 ] } },
{ "type": "Feature", "properties": { "OBJECTID": 6388, "KGISHE_ClgID": 226, "DepartmentCode": "C-1289", "KGISWardID": null, "KGISVillageID": 10076, "KGISCode": "29570055308031490000HECEDINCOLOCO0001", "HE_ClgName": "Adichunchanagiri Institute of Technology, Chikkamagalur", "Category": "Engineering College" }, "geometry": { "type": "Point", "coordinates": [ 75.797452777710461, 13.340675000312757 ] } },
{ "type": "Feature", "properties": { "OBJECTID": 6389, "KGISHE_ClgID": 227, "DepartmentCode": "C-1290", "KGISWardID": null, "KGISVillageID": 5015, "KGISCode": "29565055006049220000HECEDINCOLOCO0001", "HE_ClgName": "Ballari Institute of Technology & Management, Bellary", "Category": "Engineering College" }, "geometry": { "type": "Point", "coordinates": [ 76.85029444371699, 15.167175000035277 ] } },
{ "type": "Feature", "properties": { "OBJECTID": 7699, "KGISHE_ClgID": 228, "DepartmentCode": "C-1291", "KGISWardID": null, "KGISVillageID": 15486, "KGISCode": "29572055428031620000HECEDINCOLOCO0015", "HE_ClgName": "Dr.Ambedkar Institute of Technology, Bangalore", "Category": "Engineering College" }, "geometry": { "type": "Point", "coordinates": [ 77.505905555540551, 12.963533332720047 ] } },
{ "type": "Feature", "properties": { "OBJECTID": 6390, "KGISHE_ClgID": 229, "DepartmentCode": "C-1292", "KGISWardID": null, "KGISVillageID": 24983, "KGISCode": "29578055778032010000HECEDINCOLOCO0001", "HE_ClgName": "Govt. Engineering College, Chamarajanagara", "Category": "Engineering College" }, "geometry": { "type": "Point", "coordinates": [ 76.928947221632967, 11.93273055620309 ] } },
{ "type": "Feature", "properties": { "OBJECTID": 7700, "KGISHE_ClgID": 230, "DepartmentCode": "C-1293", "KGISWardID": null, "KGISVillageID": 29143, "KGISCode": "29584056076262260000HECEDINCOLOCO0001", "HE_ClgName": "Sampoorna Institute of Technology & Research, Ramanagar", "Category": "Engineering College" }, "geometry": { "type": "Point", "coordinates": [ 77.134216667211703, 12.622972221839783 ] } },
{ "type": "Feature", "properties": { "OBJECTID": 7701, "KGISHE_ClgID": 231, "DepartmentCode": "C-1294", "KGISWardID": null, "KGISVillageID": 15584, "KGISCode": "29572055436130110000HECEDINCOLOCO0001", "HE_ClgName": "G S S Institute of Technology, Bangalore", "Category": "Engineering College" }, "geometry": { "type": "Point", "coordinates": [ 77.460616667226546, 12.918277778223162 ] } },
{ "type": "Feature", "properties": { "OBJECTID": 6452, "KGISHE_ClgID": 232, "DepartmentCode": "C-1295", "KGISWardID": null, "KGISVillageID": 28467, "KGISCode": "29577055728031940000HECEDINCOLOCO0004", "HE_ClgName": "Visvesvaraya Technological University, Vtus Regional office, Mysore", "Category": "Engineering College" }, "geometry": { "type": "Point", "coordinates": [ 76.693647221919335, 12.323555555666104 ] } },
{ "type": "Feature", "properties": { "OBJECTID": 6391, "KGISHE_ClgID": 233, "DepartmentCode": "C-1296", "KGISWardID": null, "KGISVillageID": 22919, "KGISCode": "29574055566160140000HECEDINCOLOCO0001", "HE_ClgName": "Yagachi Institute of Technology,  Hassan", "Category": "Engineering College" }, "geometry": { "type": "Point", "coordinates": [ 76.034327778351752, 12.975516667194585 ] } },
{ "type": "Feature", "properties": { "OBJECTID": 6392, "KGISHE_ClgID": 234, "DepartmentCode": "C-1297", "KGISWardID": null, "KGISVillageID": 19588, "KGISCode": "29571055378031570000HECEDINCOLOCO0002", "HE_ClgName": "Siddaganga Institute of Technology, Tumkur", "Category": "Engineering College" }, "geometry": { "type": "Point", "coordinates": [ 77.127586110822065, 13.330955556061955 ] } },
{ "type": "Feature", "properties": { "OBJECTID": 6453, "KGISHE_ClgID": 235, "DepartmentCode": "C-1298", "KGISWardID": null, "KGISVillageID": 28471, "KGISCode": "29577055728031940000HECEDINCOLOCO0005", "HE_ClgName": "V.T.U Extension  Centre, Sri Jayachamrajendra College of Engineering Campus, Mysore", "Category": "Engineering College" }, "geometry": { "type": "Point", "coordinates": [ 76.608961111397477, 12.315811111318572 ] } },
{ "type": "Feature", "properties": { "OBJECTID": 7617, "KGISHE_ClgID": 236, "DepartmentCode": "C-1299", "KGISWardID": null, "KGISVillageID": 4989, "KGISCode": "29557054498030510000HECEDINCOLOCO0015", "HE_ClgName": "Malik Sandal Inst. of Arts & Architecture, Bijapur", "Category": "Engineering College" }, "geometry": { "type": "Point", "coordinates": [ 75.719427778045514, 16.808922221700065 ] } },
{ "type": "Feature", "properties": { "OBJECTID": 7618, "KGISHE_ClgID": 237, "DepartmentCode": "C-1300", "KGISWardID": null, "KGISVillageID": 22862, "KGISCode": "29574055566160460000HECEDINCOLOCO0001", "HE_ClgName": "Malnad College of Engineering, Hassan", "Category": "Engineering College" }, "geometry": { "type": "Point", "coordinates": [ 76.103724999585438, 13.02407222160619 ] } },
{ "type": "Feature", "properties": { "OBJECTID": 7619, "KGISHE_ClgID": 238, "DepartmentCode": "C-1301", "KGISWardID": null, "KGISVillageID": 3352, "KGISCode": "29579055828032070000HECEDINCOLOCO0002", "HE_ClgName": "P D A College of Engineering, Gulbarga", "Category": "Engineering College" }, "geometry": { "type": "Point", "coordinates": [ 76.833955000273335, 17.315131000317038 ] } },
{ "type": "Feature", "properties": { "OBJECTID": 7702, "KGISHE_ClgID": 239, "DepartmentCode": "C-1302", "KGISWardID": null, "KGISVillageID": 19234, "KGISCode": "29571055396120710000HECEDINCOLOCO0001", "HE_ClgName": "Sri Basaveshwar Institute of Technology, Tiptur", "Category": "Engineering College" }, "geometry": { "type": "Point", "coordinates": [ 76.43025799994642, 13.265346000051432 ] } },
{ "type": "Feature", "properties": { "OBJECTID": 7620, "KGISHE_ClgID": 240, "DepartmentCode": "C-1304", "KGISWardID": null, "KGISVillageID": 15698, "KGISCode": "29572055428031620000HECEDINCOLOCO0016", "HE_ClgName": "Auden Technology & Management Academy, Bangalore", "Category": "Engineering College" }, "geometry": { "type": "Point", "coordinates": [ 77.555852778417602, 12.924805555880926 ] } },
{ "type": "Feature", "properties": { "OBJECTID": 7658, "KGISHE_ClgID": 241, "DepartmentCode": "C-1306", "KGISWardID": null, "KGISVillageID": 937, "KGISCode": "29555054385978010000HECEDINCOLOCO0002", "HE_ClgName": "Jain College of Engineering,  Belgaum", "Category": "Engineering College" }, "geometry": { "type": "Point", "coordinates": [ 74.473839999844913, 15.796275000138227 ] } },
{ "type": "Feature", "properties": { "OBJECTID": 7621, "KGISHE_ClgID": 242, "DepartmentCode": "C-1307", "KGISWardID": null, "KGISVillageID": 15692, "KGISCode": "29572055428031620000HECEDINCOLOCO0017", "HE_ClgName": "City Engineering College, Bangalore", "Category": "Engineering College" }, "geometry": { "type": "Point", "coordinates": [ 77.550700000298093, 12.888216000148374 ] } },
{ "type": "Feature", "properties": { "OBJECTID": 7622, "KGISHE_ClgID": 243, "DepartmentCode": "C-1308", "KGISWardID": null, "KGISVillageID": 32372, "KGISCode": "29580055878032150000HECEDINCOLOCO0001", "HE_ClgName": "Veerappa Nisty Engineering College, Hasnapur", "Category": "Engineering College" }, "geometry": { "type": "Point", "coordinates": [ 76.788608000266365, 16.536236000320464 ] } },
{ "type": "Feature", "properties": { "OBJECTID": 7623, "KGISHE_ClgID": 244, "DepartmentCode": "C-1309", "KGISWardID": null, "KGISVillageID": 7506, "KGISCode": "29564054926041930000HECEDINCOLOCO0001", "HE_ClgName": "Govt. Engineering College, Haveri", "Category": "Engineering College" }, "geometry": { "type": "Point", "coordinates": [ 75.379269443984711, 14.852536110874309 ] } },
{ "type": "Feature", "properties": { "OBJECTID": 7624, "KGISHE_ClgID": 245, "DepartmentCode": "C-1310", "KGISWardID": null, "KGISVillageID": 4989, "KGISCode": "29557054498030510000HECEDINCOLOCO0016", "HE_ClgName": "BLDEAS College of Engg. & Technology, Bijapur", "Category": "Engineering College" }, "geometry": { "type": "Point", "coordinates": [ 75.717522221661724, 16.848447222121123 ] } },
{ "type": "Feature", "properties": { "OBJECTID": 7625, "KGISHE_ClgID": 246, "DepartmentCode": "C-1311", "KGISWardID": null, "KGISVillageID": 26003, "KGISCode": "29575055626176040000HECEDINCOLOCO0001", "HE_ClgName": "P A College of Engineering, Mangalore", "Category": "Engineering College" }, "geometry": { "type": "Point", "coordinates": [ 74.93206599961529, 12.807011000368236 ] } },
{ "type": "Feature", "properties": { "OBJECTID": 7626, "KGISHE_ClgID": 247, "DepartmentCode": "C-1312", "KGISWardID": null, "KGISVillageID": 17830, "KGISCode": "29571055386118380000HECEDINCOLOCO0001", "HE_ClgName": "Sri Channabasaveshwara Institute of Technology, Gubbi", "Category": "Engineering College" }, "geometry": { "type": "Point", "coordinates": [ 76.913343999589515, 13.315528000107999 ] } },
{ "type": "Feature", "properties": { "OBJECTID": 7627, "KGISHE_ClgID": 248, "DepartmentCode": "C-1313", "KGISWardID": null, "KGISVillageID": 6692, "KGISCode": "29562054756023760000HECEDINCOLOCO0001", "HE_ClgName": "B V B College of Engg. & Technology, Hubli", "Category": "Engineering College" }, "geometry": { "type": "Point", "coordinates": [ 75.123161110814578, 15.368691666766331 ] } },
{ "type": "Feature", "properties": { "OBJECTID": 7628, "KGISHE_ClgID": 249, "DepartmentCode": "C-1314", "KGISWardID": null, "KGISVillageID": 9058, "KGISCode": "29563054788030900000HECEDINCOLOCO0001", "HE_ClgName": "Govt. Engineering College, Karawar", "Category": "Engineering College" }, "geometry": { "type": "Point", "coordinates": [ 74.128274999892, 14.820938889371941 ] } },
{ "type": "Feature", "properties": { "OBJECTID": 7629, "KGISHE_ClgID": 250, "DepartmentCode": "C-1315", "KGISWardID": null, "KGISVillageID": 6554, "KGISCode": "29562054738030830000HECEDINCOLOCO0001", "HE_ClgName": "S D M College of Engg. & Technology, Dharwad", "Category": "Engineering College" }, "geometry": { "type": "Point", "coordinates": [ 75.014725000101322, 15.430138889038663 ] } },
{ "type": "Feature", "properties": { "OBJECTID": 7630, "KGISHE_ClgID": 251, "DepartmentCode": "C-1316", "KGISWardID": null, "KGISVillageID": 6655, "KGISCode": "29562054756024280000HECEDINCOLOCO0001", "HE_ClgName": "AGM Rural College of Engineering & Technology, Varur", "Category": "Engineering College" }, "geometry": { "type": "Point", "coordinates": [ 75.143350999768487, 15.215238999622276 ] } },
{ "type": "Feature", "properties": { "OBJECTID": 7631, "KGISHE_ClgID": 252, "DepartmentCode": "C-1317", "KGISWardID": null, "KGISVillageID": 990, "KGISCode": "29555054385976730000HECEDINCOLOCO0001", "HE_ClgName": "Shaikh College of Engineering & Technology, Belgaum", "Category": "Engineering College" }, "geometry": { "type": "Point", "coordinates": [ 74.510086111233235, 16.010161110746377 ] } },
{ "type": "Feature", "properties": { "OBJECTID": 7632, "KGISHE_ClgID": 253, "DepartmentCode": "C-1318", "KGISWardID": null, "KGISVillageID": 16301, "KGISCode": "29581055916219940000HECEDINCOLOCO0001", "HE_ClgName": "C. Bairegouda Institute of Technology, Kolar", "Category": "Engineering College" }, "geometry": { "type": "Point", "coordinates": [ 78.153088888725833, 13.197119444073676 ] } },
{ "type": "Feature", "properties": { "OBJECTID": 7633, "KGISHE_ClgID": 254, "DepartmentCode": "C-1319", "KGISWardID": null, "KGISVillageID": 15311, "KGISCode": "29572055426128790000HECEDINCOLOCO0001", "HE_ClgName": "Acharya Institute of Technology, Bangalore", "Category": "Engineering College" }, "geometry": { "type": "Point", "coordinates": [ 77.484769000207663, 13.084013999754443 ] } },
{ "type": "Feature", "properties": { "OBJECTID": 7634, "KGISHE_ClgID": 255, "DepartmentCode": "C-1320", "KGISWardID": null, "KGISVillageID": 30517, "KGISCode": "29582055966236390000HECEDINCOLOCO0001", "HE_ClgName": "S J C Institute of Technology, Chickballapur", "Category": "Engineering College" }, "geometry": { "type": "Point", "coordinates": [ 77.728933333204751, 13.39499722197111 ] } },
{ "type": "Feature", "properties": { "OBJECTID": 7703, "KGISHE_ClgID": 256, "DepartmentCode": "C-1321", "KGISWardID": null, "KGISVillageID": 926, "KGISCode": "29555054388030340000HECEDINCOLOCO0019", "HE_ClgName": "S G Balekundri Institute of Technology,  Belgaum", "Category": "Engineering College" }, "geometry": { "type": "Point", "coordinates": [ 74.518717999624442, 15.880159000335558 ] } },
{ "type": "Feature", "properties": { "OBJECTID": 7635, "KGISHE_ClgID": 257, "DepartmentCode": "C-1322", "KGISWardID": null, "KGISVillageID": 23627, "KGISCode": "29573055468031640000HECEDINCOLOCO0001", "HE_ClgName": "Govt. Engineering College, Mandya", "Category": "Engineering College" }, "geometry": { "type": "Point", "coordinates": [ 76.485861111345741, 12.658250000112137 ] } },
{ "type": "Feature", "properties": { "OBJECTID": 6393, "KGISHE_ClgID": 258, "DepartmentCode": "C-1323", "KGISWardID": null, "KGISVillageID": 25992, "KGISCode": "29575055626175560000HECEDINCOLOCO0001", "HE_ClgName": "Canara Engineering College, Bantwal", "Category": "Engineering College" }, "geometry": { "type": "Point", "coordinates": [ 74.984516666878235, 12.898719444323767 ] } },
{ "type": "Feature", "properties": { "OBJECTID": 6394, "KGISHE_ClgID": 259, "DepartmentCode": "C-1324", "KGISWardID": null, "KGISVillageID": 7178, "KGISCode": "29561054716020800000HECEDINCOLOCO0001", "HE_ClgName": "Smt. Kamala & Vekappa  M Agadi College of Engg. & Technology, Lakshmeshwara", "Category": "Engineering College" }, "geometry": { "type": "Point", "coordinates": [ 75.454240999813706, 15.099007999829992 ] } },
{ "type": "Feature", "properties": { "OBJECTID": 6454, "KGISHE_ClgID": 260, "DepartmentCode": "C-1325", "KGISWardID": null, "KGISVillageID": 190, "KGISCode": "29556054475987950000HECEDINCOLOCO0001", "HE_ClgName": "Basaveshwar Engineering College, Bagalkot (Qip Centre)", "Category": "Engineering College" }, "geometry": { "type": "Point", "coordinates": [ 75.656811111117023, 16.172969444199722 ] } },
{ "type": "Feature", "properties": { "OBJECTID": 6455, "KGISHE_ClgID": 261, "DepartmentCode": "C-1326", "KGISWardID": null, "KGISVillageID": 15594, "KGISCode": "29572055428031620000HECEDINCOLOCO0018", "HE_ClgName": "R V College of Engineering, Bangalore (Qip Centre)", "Category": "Engineering College" }, "geometry": { "type": "Point", "coordinates": [ 77.499388889037562, 12.923319443623809 ] } },
{ "type": "Feature", "properties": { "OBJECTID": 6395, "KGISHE_ClgID": 262, "DepartmentCode": "C-1327", "KGISWardID": null, "KGISVillageID": 15340, "KGISCode": "29572055426128950000HECEDINCOLOCO0001", "HE_ClgName": "Sir M Visvesvaraya Institute of Technology, Bangalore", "Category": "Engineering College" }, "geometry": { "type": "Point", "coordinates": [ 77.609950000338955, 13.151275999774668 ] } },
{ "type": "Feature", "properties": { "OBJECTID": 6396, "KGISHE_ClgID": 263, "DepartmentCode": "C-1328", "KGISWardID": null, "KGISVillageID": 29953, "KGISCode": "29584056066260850000HECEDINCOLOCO0001", "HE_ClgName": "Govt. Engineering College, Ramanagara", "Category": "Engineering College" }, "geometry": { "type": "Point", "coordinates": [ 77.24481388856583, 12.698805555807052 ] } },
{ "type": "Feature", "properties": { "OBJECTID": 6397, "KGISHE_ClgID": 264, "DepartmentCode": "C-1329", "KGISWardID": null, "KGISVillageID": 26257, "KGISCode": "29575055646176880000HECEDINCOLOCO0001", "HE_ClgName": "Vivekananda College of Engg. & Tech., Puttur", "Category": "Engineering College" }, "geometry": { "type": "Point", "coordinates": [ 75.184266666875658, 12.780858332610554 ] } },
{ "type": "Feature", "properties": { "OBJECTID": 7704, "KGISHE_ClgID": 265, "DepartmentCode": "C-1330", "KGISWardID": null, "KGISVillageID": 15461, "KGISCode": "29572055428031620000HECEDINCOLOCO0019", "HE_ClgName": "Basava Academy of Engineering, Bangalore", "Category": "Engineering College" }, "geometry": { "type": "Point", "coordinates": [ 77.484755556430954, 13.030063889185458 ] } },
{ "type": "Feature", "properties": { "OBJECTID": 6398, "KGISHE_ClgID": 266, "DepartmentCode": "C-1331", "KGISWardID": null, "KGISVillageID": 15143, "KGISCode": "29572055428031620000HECEDINCOLOCO0020", "HE_ClgName": "M S Ramaiah Institute of Technology, Bangalore", "Category": "Engineering College" }, "geometry": { "type": "Point", "coordinates": [ 77.565163888727525, 13.031122222371611 ] } },
{ "type": "Feature", "properties": { "OBJECTID": 6399, "KGISHE_ClgID": 267, "DepartmentCode": "C-1332", "KGISWardID": null, "KGISVillageID": 15681, "KGISCode": "29572055428031620000HECEDINCOLOCO0021", "HE_ClgName": "R N S Institute of Technology, Bangalore", "Category": "Engineering College" }, "geometry": { "type": "Point", "coordinates": [ 77.518602777954229, 12.902238889170668 ] } },
{ "type": "Feature", "properties": { "OBJECTID": 6456, "KGISHE_ClgID": 268, "DepartmentCode": "C-1333", "KGISWardID": null, "KGISVillageID": 28460, "KGISCode": "29577055728031940000HECEDINCOLOCO0006", "HE_ClgName": "National Institute of Engineering, Mysore (Qip Centre)", "Category": "Engineering College" }, "geometry": { "type": "Point", "coordinates": [ 76.641236111137104, 12.283919443647429 ] } },
{ "type": "Feature", "properties": { "OBJECTID": 6400, "KGISHE_ClgID": 269, "DepartmentCode": "C-1334", "KGISWardID": null, "KGISVillageID": 15115, "KGISCode": "29572055428031620000HECEDINCOLOCO0022", "HE_ClgName": "Govt. Tool Room & Training Centre, Bangalore", "Category": "Engineering College" }, "geometry": { "type": "Point", "coordinates": [ 77.5500749999525, 12.979613889401676 ] } },
{ "type": "Feature", "properties": { "OBJECTID": 6401, "KGISHE_ClgID": 270, "DepartmentCode": "C-1335", "KGISWardID": null, "KGISVillageID": 26128, "KGISCode": "29575055616174560000HECEDINCOLOCO0001", "HE_ClgName": "Dr. M V Shetty Institute of Technology, Mangalore Taluk", "Category": "Engineering College" }, "geometry": { "type": "Point", "coordinates": [ 74.976177778251426, 13.044336111306944 ] } },
{ "type": "Feature", "properties": { "OBJECTID": 6402, "KGISHE_ClgID": 271, "DepartmentCode": "C-1336", "KGISWardID": null, "KGISVillageID": 15376, "KGISCode": "29572055426129390000HECEDINCOLOCO0001", "HE_ClgName": "B M S Institute of Technology, Bangalore", "Category": "Engineering College" }, "geometry": { "type": "Point", "coordinates": [ 77.568183332627015, 13.133933333334321 ] } },
{ "type": "Feature", "properties": { "OBJECTID": 6403, "KGISHE_ClgID": 272, "DepartmentCode": "C-1337", "KGISWardID": null, "KGISVillageID": 5242, "KGISCode": "29565054988031090000HECEDINCOLOCO0001", "HE_ClgName": "Proudadevaraya Institute of Technology, Hospet", "Category": "Engineering College" }, "geometry": { "type": "Point", "coordinates": [ 76.367644444397996, 15.264205556320022 ] } },
{ "type": "Feature", "properties": { "OBJECTID": 6404, "KGISHE_ClgID": 273, "DepartmentCode": "C-1338", "KGISWardID": null, "KGISVillageID": 22857, "KGISCode": "29574055568031740000HECEDINCOLOCO0001", "HE_ClgName": "Rajeev Institute of Technology, Hassan", "Category": "Engineering College" }, "geometry": { "type": "Point", "coordinates": [ 76.11496111108562, 12.990574999928212 ] } },
{ "type": "Feature", "properties": { "OBJECTID": 6457, "KGISHE_ClgID": 274, "DepartmentCode": "C-1339", "KGISWardID": null, "KGISVillageID": 6554, "KGISCode": "29562054738030830000HECEDINCOLOCO0002", "HE_ClgName": "S D M College of Engineering & Technology, Dharwad (Qip Centre)", "Category": "Engineering College" }, "geometry": { "type": "Point", "coordinates": [ 75.014733332746104, 15.430100000031572 ] } },
{ "type": "Feature", "properties": { "OBJECTID": 6405, "KGISHE_ClgID": 275, "DepartmentCode": "C-1340", "KGISWardID": null, "KGISVillageID": 15089, "KGISCode": "29572055428031620000HECEDINCOLOCO0023", "HE_ClgName": "Bangalore Institute of Technology, Bangalore", "Category": "Engineering College" }, "geometry": { "type": "Point", "coordinates": [ 77.57412777813694, 12.955200000043725 ] } },
{ "type": "Feature", "properties": { "OBJECTID": 6406, "KGISHE_ClgID": 276, "DepartmentCode": "C-1341", "KGISWardID": null, "KGISVillageID": 28459, "KGISCode": "29577055728031940000HECEDINCOLOCO0007", "HE_ClgName": "G S S S Institute of Engineering & Technology For Women, Mysore", "Category": "Engineering College" }, "geometry": { "type": "Point", "coordinates": [ 76.628816666554485, 12.361608332669599 ] } },
{ "type": "Feature", "properties": { "OBJECTID": 6407, "KGISHE_ClgID": 277, "DepartmentCode": "C-1342", "KGISWardID": null, "KGISVillageID": 15564, "KGISCode": "29572055436130260000HECEDINCOLOCO0001", "HE_ClgName": "Vivekananda Institute of Technology, Bangalore", "Category": "Engineering College" }, "geometry": { "type": "Point", "coordinates": [ 77.455263889350604, 12.856261110686434 ] } },
{ "type": "Feature", "properties": { "OBJECTID": 6408, "KGISHE_ClgID": 278, "DepartmentCode": "C-1343", "KGISWardID": null, "KGISVillageID": 15339, "KGISCode": "29572055426128880000HECEDINCOLOCO0001", "HE_ClgName": "M S Engineering College, Bangalore", "Category": "Engineering College" }, "geometry": { "type": "Point", "coordinates": [ 77.622444444450991, 13.203433332833692 ] } },
{ "type": "Feature", "properties": { "OBJECTID": 6409, "KGISHE_ClgID": 279, "DepartmentCode": "C-1344", "KGISWardID": null, "KGISVillageID": 15710, "KGISCode": "29572055428031620000HECEDINCOLOCO0024", "HE_ClgName": "Kammavari Sangh Group & Institutions, Bangalore South", "Category": "Engineering College" }, "geometry": { "type": "Point", "coordinates": [ 77.544872222045356, 12.879249999921718 ] } },
{ "type": "Feature", "properties": { "OBJECTID": 7636, "KGISHE_ClgID": 280, "DepartmentCode": "C-1345", "KGISWardID": null, "KGISVillageID": 24181, "KGISCode": "29573055506144210000HECEDINCOLOCO0001", "HE_ClgName": "P E S College of Engineering, Mandya", "Category": "Engineering College" }, "geometry": { "type": "Point", "coordinates": [ 76.878583333340998, 12.517547221810045 ] } },
{ "type": "Feature", "properties": { "OBJECTID": 7637, "KGISHE_ClgID": 281, "DepartmentCode": "C-1346", "KGISWardID": null, "KGISVillageID": 1109, "KGISCode": "29555054338030210000HECEDINCOLOCO0005", "HE_ClgName": "V S M S Institute of Technology,  Nippani", "Category": "Engineering College" }, "geometry": { "type": "Point", "coordinates": [ 74.378255999843716, 16.383736999730676 ] } },
{ "type": "Feature", "properties": { "OBJECTID": 6458, "KGISHE_ClgID": 282, "DepartmentCode": "C-1347", "KGISWardID": null, "KGISVillageID": 11796, "KGISCode": "29567055128031270000HECEDINCOLOCO0001", "HE_ClgName": "Bapuji Institute of Engineering & Technology, Davanagere (Qip Centres)", "Category": "Engineering College" }, "geometry": { "type": "Point", "coordinates": [ 75.901569443664471, 14.444713888764941 ] } },
{ "type": "Feature", "properties": { "OBJECTID": 7638, "KGISHE_ClgID": 283, "DepartmentCode": "C-1348", "KGISWardID": null, "KGISVillageID": 30092, "KGISCode": "29572055428031620000HECEDINCOLOCO0025", "HE_ClgName": "Govt. S K S J Technological Institute,  Bangalore", "Category": "Engineering College" }, "geometry": { "type": "Point", "coordinates": [ 77.587097222405617, 12.976777778134228 ] } },
{ "type": "Feature", "properties": { "OBJECTID": 7639, "KGISHE_ClgID": 295, "DepartmentCode": "C-1351", "KGISWardID": null, "KGISVillageID": 3379, "KGISCode": "29579055828032070000HECEDINCOLOCO0003", "HE_ClgName": "K B N College of Engineering, Gulbarga", "Category": "Engineering College" }, "geometry": { "type": "Point", "coordinates": [ 76.853364367682261, 17.352550583349412 ] } },
{ "type": "Feature", "properties": { "OBJECTID": 7640, "KGISHE_ClgID": 296, "DepartmentCode": "C-1352", "KGISWardID": null, "KGISVillageID": 15394, "KGISCode": "29572055428031620000HECEDINCOLOCO0027", "HE_ClgName": "Nitte Institute of Technology, Bangalore", "Category": "Engineering College" }, "geometry": { "type": "Point", "coordinates": [ 77.587308332703429, 13.128463888565951 ] } },
{ "type": "Feature", "properties": { "OBJECTID": 7641, "KGISHE_ClgID": 297, "DepartmentCode": "C-1353", "KGISWardID": null, "KGISVillageID": 28461, "KGISCode": "29577055726187310000HECEDINCOLOCO0001", "HE_ClgName": "Vidya Vikas Institute of Technology, Mysore", "Category": "Engineering College" }, "geometry": { "type": "Point", "coordinates": [ 76.711358333273978, 12.304038889104659 ] } },
{ "type": "Feature", "properties": { "OBJECTID": 7642, "KGISHE_ClgID": 298, "DepartmentCode": "C-1354", "KGISWardID": null, "KGISVillageID": 15347, "KGISCode": "29572055428031620000HECEDINCOLOCO0028", "HE_ClgName": "Reva Institute of Engg. & Tech., Bangalore", "Category": "Engineering College" }, "geometry": { "type": "Point", "coordinates": [ 77.634713889021526, 13.113852778285167 ] } },
{ "type": "Feature", "properties": { "OBJECTID": 7705, "KGISHE_ClgID": 299, "DepartmentCode": "C-1355", "KGISWardID": null, "KGISVillageID": 8816, "KGISCode": "29563054888030990000HECEDINCOLOCO0001", "HE_ClgName": "Anjuman Engineering College, Bhatkal", "Category": "Engineering College" }, "geometry": { "type": "Point", "coordinates": [ 74.557772222022507, 13.99738611125845 ] } },
{ "type": "Feature", "properties": { "OBJECTID": 7643, "KGISHE_ClgID": 300, "DepartmentCode": "C-1356", "KGISWardID": null, "KGISVillageID": 15459, "KGISCode": "29572055428031620000HECEDINCOLOCO0029", "HE_ClgName": "East West Institute of Technology, Bangalore", "Category": "Engineering College" }, "geometry": { "type": "Point", "coordinates": [ 77.482455556451953, 12.975974999659231 ] } },
{ "type": "Feature", "properties": { "OBJECTID": 7644, "KGISHE_ClgID": 301, "DepartmentCode": "C-1357", "KGISWardID": null, "KGISVillageID": 967, "KGISCode": "29555054385976740000HECEDINCOLOCO0001", "HE_ClgName": "Maratha Mandal Engineering College, Belgaum", "Category": "Engineering College" }, "geometry": { "type": "Point", "coordinates": [ 74.520638889291845, 16.016563889430508 ] } },
{ "type": "Feature", "properties": { "OBJECTID": 7645, "KGISHE_ClgID": 302, "DepartmentCode": "C-1358", "KGISWardID": null, "KGISVillageID": 13442, "KGISCode": "29568055206084040000HECEDINCOLOCO0001", "HE_ClgName": "PES  Institute of Technology & Management,  Shivamoga", "Category": "Engineering College" }, "geometry": { "type": "Point", "coordinates": [ 75.508738889093777, 13.96167222158318 ] } },
{ "type": "Feature", "properties": { "OBJECTID": 7646, "KGISHE_ClgID": 303, "DepartmentCode": "C-1359", "KGISWardID": null, "KGISVillageID": 15452, "KGISCode": "29572055428031620000HECEDINCOLOCO0030", "HE_ClgName": "Sapthagiri College of Engineering, Bangalore", "Category": "Engineering College" }, "geometry": { "type": "Point", "coordinates": [ 77.504672222246484, 13.067708333087987 ] } },
{ "type": "Feature", "properties": { "OBJECTID": 7647, "KGISHE_ClgID": 304, "DepartmentCode": "C-1360", "KGISWardID": null, "KGISVillageID": 190, "KGISCode": "29556054475987950000HECEDINCOLOCO0002", "HE_ClgName": "Basaveshwar Engineering College, Bagalkot", "Category": "Engineering College" }, "geometry": { "type": "Point", "coordinates": [ 75.656763889421825, 16.172783332867805 ] } },
{ "type": "Feature", "properties": { "OBJECTID": 7648, "KGISHE_ClgID": 305, "DepartmentCode": "C-1361", "KGISWardID": null, "KGISVillageID": 6954, "KGISCode": "29561054708030780000HECEDINCOLOCO0001", "HE_ClgName": "Sri Tontadarya College of Engineering, Gadag", "Category": "Engineering College" }, "geometry": { "type": "Point", "coordinates": [ 75.636447222141072, 15.412588889204402 ] } },
{ "type": "Feature", "properties": { "OBJECTID": 7649, "KGISHE_ClgID": 306, "DepartmentCode": "C-1362", "KGISWardID": null, "KGISVillageID": 15520, "KGISCode": "29572055428031620000HECEDINCOLOCO0031", "HE_ClgName": "Islamiah Inst. of Technology, Bangalore", "Category": "Engineering College" }, "geometry": { "type": "Point", "coordinates": [ 77.595355555822351, 12.873399999632058 ] } },
{ "type": "Feature", "properties": { "OBJECTID": 7650, "KGISHE_ClgID": 307, "DepartmentCode": "C-1363", "KGISWardID": null, "KGISVillageID": 15413, "KGISCode": "29572055428031620000HECEDINCOLOCO0032", "HE_ClgName": "Impact College of Engg. & Applied Science,  Bangalore", "Category": "Engineering College" }, "geometry": { "type": "Point", "coordinates": [ 77.575558333392024, 13.057783332789656 ] } },
{ "type": "Feature", "properties": { "OBJECTID": 7651, "KGISHE_ClgID": 308, "DepartmentCode": "C-1364", "KGISWardID": null, "KGISVillageID": 21329, "KGISCode": "29572055446130820000HECEDINCOLOCO0001", "HE_ClgName": "East Point College of Engg. For Women, Bangalore", "Category": "Engineering College" }, "geometry": { "type": "Point", "coordinates": [ 77.716280556336031, 13.049797222124763 ] } },
{ "type": "Feature", "properties": { "OBJECTID": 7652, "KGISHE_ClgID": 309, "DepartmentCode": "C-1365", "KGISWardID": null, "KGISVillageID": 15347, "KGISCode": "29572055428031620000HECEDINCOLOCO0033", "HE_ClgName": "Brindavan College of Engg., Bangalore", "Category": "Engineering College" }, "geometry": { "type": "Point", "coordinates": [ 77.62043888909858, 13.124683333190319 ] } },
{ "type": "Feature", "properties": { "OBJECTID": 7692, "KGISHE_ClgID": 310, "DepartmentCode": "C-1366", "KGISWardID": null, "KGISVillageID": 11791, "KGISCode": "29567055128031270000HECEDINCOLOCO0002", "HE_ClgName": "UBDT College of Engineering, Davanagere", "Category": "Engineering College" }, "geometry": { "type": "Point", "coordinates": [ 75.917652778004225, 14.451930556302896 ] } },
{ "type": "Feature", "properties": { "OBJECTID": 7693, "KGISHE_ClgID": 311, "DepartmentCode": "C-1367", "KGISWardID": null, "KGISVillageID": 3375, "KGISCode": "29579055826203210000HECEDINCOLOCO0001", "HE_ClgName": "Visvesvaraya Technological University, V.T.URegional office, Gulbarga", "Category": "Engineering College" }, "geometry": { "type": "Point", "coordinates": [ 76.854525000350563, 17.319219444252123 ] } },
{ "type": "Feature", "properties": { "OBJECTID": 7694, "KGISHE_ClgID": 312, "DepartmentCode": "C-1368", "KGISWardID": null, "KGISVillageID": 941, "KGISCode": "29555054385978010000HECEDINCOLOCO0003", "HE_ClgName": "Visvesvaraya Technological University, Belgaum", "Category": "Engineering College" }, "geometry": { "type": "Point", "coordinates": [ 74.463472000061444, 15.777725000292111 ] } },
{ "type": "Feature", "properties": { "OBJECTID": 7653, "KGISHE_ClgID": 313, "DepartmentCode": "C-1369", "KGISWardID": null, "KGISVillageID": 26048, "KGISCode": "29575055616175120000HECEDINCOLOCO0002", "HE_ClgName": "Srinivas School of Engineering,  Mangalore", "Category": "Engineering College" }, "geometry": { "type": "Point", "coordinates": [ 74.940386111165168, 12.874505556161502 ] } },
{ "type": "Feature", "properties": { "OBJECTID": 7654, "KGISHE_ClgID": 314, "DepartmentCode": "C-1370", "KGISWardID": null, "KGISVillageID": 4229, "KGISCode": "29559054616007800000HECEDINCOLOCO0001", "HE_ClgName": "S L N College of Engineering, Raichur", "Category": "Engineering College" }, "geometry": { "type": "Point", "coordinates": [ 77.362949999884478, 16.251761110839261 ] } },
{ "type": "Feature", "properties": { "OBJECTID": 6410, "KGISHE_ClgID": 315, "DepartmentCode": "C-1371", "KGISWardID": null, "KGISVillageID": 21463, "KGISCode": "29572055428031620000HECEDINCOLOCO0034", "HE_ClgName": "New Horizon College of Engineering, Bangalore", "Category": "Engineering College" }, "geometry": { "type": "Point", "coordinates": [ 77.692502777767899, 12.933924999968724 ] } },
{ "type": "Feature", "properties": { "OBJECTID": 6411, "KGISHE_ClgID": 316, "DepartmentCode": "C-1372", "KGISWardID": null, "KGISVillageID": 6959, "KGISCode": "29561054706020210000HECEDINCOLOCO0001", "HE_ClgName": "Rural Engineering College, Hulkoti", "Category": "Engineering College" }, "geometry": { "type": "Point", "coordinates": [ 75.564655556435497, 15.422591666955141 ] } },
{ "type": "Feature", "properties": { "OBJECTID": 6412, "KGISHE_ClgID": 317, "DepartmentCode": "C-1373", "KGISWardID": null, "KGISVillageID": 925, "KGISCode": "29555054388030330000HECEDINCOLOCO0008", "HE_ClgName": "K L E College of Engg. & Technology, Belgaum", "Category": "Engineering College" }, "geometry": { "type": "Point", "coordinates": [ 74.498372221939775, 15.820380556221405 ] } },
{ "type": "Feature", "properties": { "OBJECTID": 6413, "KGISHE_ClgID": 318, "DepartmentCode": "C-1374", "KGISWardID": null, "KGISVillageID": 11777, "KGISCode": "29567055128031270000HECEDINCOLOCO0003", "HE_ClgName": "G M Institute of Technology, Davangere", "Category": "Engineering College" }, "geometry": { "type": "Point", "coordinates": [ 75.884858332667704, 14.47550833283996 ] } },
{ "type": "Feature", "properties": { "OBJECTID": 6414, "KGISHE_ClgID": 319, "DepartmentCode": "C-1375", "KGISWardID": null, "KGISVillageID": 21415, "KGISCode": "29572055428031620000HECEDINCOLOCO0035", "HE_ClgName": "S C T Institute of Technology, Bangalore", "Category": "Engineering College" }, "geometry": { "type": "Point", "coordinates": [ 77.680002778154034, 12.977127777593696 ] } },
{ "type": "Feature", "properties": { "OBJECTID": 6415, "KGISHE_ClgID": 320, "DepartmentCode": "C-1376", "KGISWardID": null, "KGISVillageID": 20905, "KGISCode": "29583056016249490000HECEDINCOLOCO0001", "HE_ClgName": "Dr.Sri Sri Sri Shivakumara Mahaswamy College of Engineering, Bangalore", "Category": "Engineering College" }, "geometry": { "type": "Point", "coordinates": [ 77.411097221653733, 13.087333332736147 ] } },
{ "type": "Feature", "properties": { "OBJECTID": 6416, "KGISHE_ClgID": 321, "DepartmentCode": "C-1377", "KGISWardID": null, "KGISVillageID": 15509, "KGISCode": "29572055428031620000HECEDINCOLOCO0036", "HE_ClgName": "Oxford College of Engineering, Bangalore", "Category": "Engineering College" }, "geometry": { "type": "Point", "coordinates": [ 77.631266666861322, 12.901500000297268 ] } },
{ "type": "Feature", "properties": { "OBJECTID": 6417, "KGISHE_ClgID": 322, "DepartmentCode": "C-1378", "KGISWardID": null, "KGISVillageID": 15452, "KGISCode": "29572055428031620000HECEDINCOLOCO0037", "HE_ClgName": "R R Institute of Technology, Bangalore", "Category": "Engineering College" }, "geometry": { "type": "Point", "coordinates": [ 77.510344444116555, 13.071113889113452 ] } },
{ "type": "Feature", "properties": { "OBJECTID": 6418, "KGISHE_ClgID": 323, "DepartmentCode": "C-1379", "KGISWardID": null, "KGISVillageID": 16076, "KGISCode": "29581055938032240000HECEDINCOLOCO0001", "HE_ClgName": "Dr.Timmaiah  Institute of Technology,  K G F", "Category": "Engineering College" }, "geometry": { "type": "Point", "coordinates": [ 78.246902778016604, 12.944672221593924 ] } },
{ "type": "Feature", "properties": { "OBJECTID": 6419, "KGISHE_ClgID": 324, "DepartmentCode": "C-1380", "KGISWardID": null, "KGISVillageID": 26063, "KGISCode": "29575055616175100000HECEDINCOLOCO0001", "HE_ClgName": "Karavali Institute of Technology, Mangalore", "Category": "Engineering College" }, "geometry": { "type": "Point", "coordinates": [ 74.92489722186987, 12.893333333396171 ] } },
{ "type": "Feature", "properties": { "OBJECTID": 6420, "KGISHE_ClgID": 325, "DepartmentCode": "C-1381", "KGISWardID": null, "KGISVillageID": 15322, "KGISCode": "29572055426128970000HECEDINCOLOCO0001", "HE_ClgName": "Sri Venkateshwara College of Engineering, Bangalore", "Category": "Engineering College" }, "geometry": { "type": "Point", "coordinates": [ 77.636183333445061, 13.159638888804889 ] } },
{ "type": "Feature", "properties": { "OBJECTID": 6421, "KGISHE_ClgID": 326, "DepartmentCode": "C-1382", "KGISWardID": null, "KGISVillageID": 15332, "KGISCode": "29572055426128910000HECEDINCOLOCO0001", "HE_ClgName": "Sri Revana Siddeshwara Institute  of Technology,  Bangalore", "Category": "Engineering College" }, "geometry": { "type": "Point", "coordinates": [ 77.620249999668928, 13.172666667165226 ] } },
{ "type": "Feature", "properties": { "OBJECTID": 6422, "KGISHE_ClgID": 327, "DepartmentCode": "C-1383", "KGISWardID": null, "KGISVillageID": 21329, "KGISCode": "29572055446130820000HECEDINCOLOCO0002", "HE_ClgName": "East Point College of Engg., & Tech., Bangalore", "Category": "Engineering College" }, "geometry": { "type": "Point", "coordinates": [ 77.716261110796012, 13.049808333402988 ] } },
{ "type": "Feature", "properties": { "OBJECTID": 6423, "KGISHE_ClgID": 328, "DepartmentCode": "C-1384", "KGISWardID": null, "KGISVillageID": 13453, "KGISCode": "29568055208031370000HECEDINCOLOCO0001", "HE_ClgName": "J N N College of Engineering, Shimoga", "Category": "Engineering College" }, "geometry": { "type": "Point", "coordinates": [ 75.578974999978001, 13.966355555611896 ] } },
{ "type": "Feature", "properties": { "OBJECTID": 6424, "KGISHE_ClgID": 329, "DepartmentCode": "C-1385", "KGISWardID": null, "KGISVillageID": 22847, "KGISCode": "29574055568031740000HECEDINCOLOCO0002", "HE_ClgName": "Govt. Engineering College, Hassan", "Category": "Engineering College" }, "geometry": { "type": "Point", "coordinates": [ 76.121163888980234, 13.010452777827723 ] } },
{ "type": "Feature", "properties": { "OBJECTID": 7706, "KGISHE_ClgID": 330, "DepartmentCode": "C-1386", "KGISWardID": null, "KGISVillageID": 30442, "KGISCode": "29582055966234560000HECEDINCOLOCO0001", "HE_ClgName": "Shah-Shib College of Engineering, Chikkaballapur", "Category": "Engineering College" }, "geometry": { "type": "Point", "coordinates": [ 77.788355556325016, 13.607761110678743 ] } },
{ "type": "Feature", "properties": { "OBJECTID": 6425, "KGISHE_ClgID": 331, "DepartmentCode": "C-1387", "KGISWardID": null, "KGISVillageID": 14818, "KGISCode": "29569055226087370000HECEDINCOLOCO0001", "HE_ClgName": "Moodalkatte Institute of Technology, Moodlekatti, Udupi", "Category": "Engineering College" }, "geometry": { "type": "Point", "coordinates": [ 74.732451000011579, 13.614360999866999 ] } },
{ "type": "Feature", "properties": { "OBJECTID": 6444, "KGISHE_ClgID": 332, "DepartmentCode": "C-1388", "KGISWardID": null, "KGISVillageID": 28443, "KGISCode": "29577055726188330000HECEDINCOLOCO0002", "HE_ClgName": "Govt. Tool Room & Training Center, Mysore", "Category": "Engineering College" }, "geometry": { "type": "Point", "coordinates": [ 76.620733333094478, 12.367199999960144 ] } },
{ "type": "Feature", "properties": { "OBJECTID": 7659, "KGISHE_ClgID": 333, "DepartmentCode": "C-1389", "KGISWardID": null, "KGISVillageID": 15086, "KGISCode": "29572055428031620000HECEDINCOLOCO0038", "HE_ClgName": "Rajiv Gandhi Institute of Technology,  Bangalore", "Category": "Engineering College" }, "geometry": { "type": "Point", "coordinates": [ 77.597111110699828, 13.033572222127438 ] } },
{ "type": "Feature", "properties": { "OBJECTID": 7660, "KGISHE_ClgID": 334, "DepartmentCode": "C-1390", "KGISWardID": null, "KGISVillageID": 19223, "KGISCode": "29571055396120720000HECEDINCOLOCO0001", "HE_ClgName": "Kalpataru Institute of Technology, Tiptur", "Category": "Engineering College" }, "geometry": { "type": "Point", "coordinates": [ 76.455099999772713, 13.262883333066519 ] } },
{ "type": "Feature", "properties": { "OBJECTID": 7661, "KGISHE_ClgID": 335, "DepartmentCode": "C-1391", "KGISWardID": null, "KGISVillageID": 15720, "KGISCode": "29572055428031620000HECEDINCOLOCO0039", "HE_ClgName": "Shirdi Sai Engineering College, Bangalore", "Category": "Engineering College" }, "geometry": { "type": "Point", "coordinates": [ 77.580702778078006, 12.927855556312208 ] } },
{ "type": "Feature", "properties": { "OBJECTID": 7662, "KGISHE_ClgID": 336, "DepartmentCode": "C-1392", "KGISWardID": null, "KGISVillageID": 25902, "KGISCode": "29575055636176530000HECEDINCOLOCO0001", "HE_ClgName": "Shri Dharmasthala Manjunatheshwar Educational Society, Ujire", "Category": "Engineering College" }, "geometry": { "type": "Point", "coordinates": [ 75.341947222436943, 12.991388888912452 ] } },
{ "type": "Feature", "properties": { "OBJECTID": 6469, "KGISHE_ClgID": 337, "DepartmentCode": "C-1393", "KGISWardID": null, "KGISVillageID": 21448, "KGISCode": "29572055428031620000HECEDINCOLOCO0040", "HE_ClgName": "Sri Krishna School of Engineering & Mgmt.Bangalore", "Category": "Engineering College" }, "geometry": { "type": "Point", "coordinates": [ 77.715063889329841, 12.907947221826715 ] } },
{ "type": "Feature", "properties": { "OBJECTID": 7663, "KGISHE_ClgID": 338, "DepartmentCode": "C-1394", "KGISWardID": null, "KGISVillageID": 27497, "KGISCode": "29576055686180540000HECEDINCOLOCO0001", "HE_ClgName": "Coorg Institute of Technology, Ponnampet", "Category": "Engineering College" }, "geometry": { "type": "Point", "coordinates": [ 75.91848299957843, 12.133948000020771 ] } },
{ "type": "Feature", "properties": { "OBJECTID": 7664, "KGISHE_ClgID": 339, "DepartmentCode": "C-1395", "KGISWardID": null, "KGISVillageID": 15146, "KGISCode": "29572055428031620000HECEDINCOLOCO0041", "HE_ClgName": "H K B K Institute of Technology, Bangalore", "Category": "Engineering College" }, "geometry": { "type": "Point", "coordinates": [ 77.619841667343906, 13.037363889341187 ] } },
{ "type": "Feature", "properties": { "OBJECTID": 7665, "KGISHE_ClgID": 340, "DepartmentCode": "C-1396", "KGISWardID": null, "KGISVillageID": 5007, "KGISCode": "29565055008031140000HECEDINCOLOCO0001", "HE_ClgName": "Rao Bahaddur Y Mahabaleshwarappa  Engineering College, Bellary", "Category": "Engineering College" }, "geometry": { "type": "Point", "coordinates": [ 76.891363888877166, 15.157805556269684 ] } },
{ "type": "Feature", "properties": { "OBJECTID": 7666, "KGISHE_ClgID": 341, "DepartmentCode": "C-1397", "KGISWardID": null, "KGISVillageID": 4989, "KGISCode": "29557054498030510000HECEDINCOLOCO0017", "HE_ClgName": "Secab Institute of Engg. & Technology,  Bijapur", "Category": "Engineering College" }, "geometry": { "type": "Point", "coordinates": [ 75.718622221891579, 16.80772777791087 ] } },
{ "type": "Feature", "properties": { "OBJECTID": 7667, "KGISHE_ClgID": 342, "DepartmentCode": "C-1398", "KGISWardID": null, "KGISVillageID": 15702, "KGISCode": "29572055428031620000HECEDINCOLOCO0042", "HE_ClgName": "B N M Institute of Technology, Bangalore", "Category": "Engineering College" }, "geometry": { "type": "Point", "coordinates": [ 77.567225000426674, 12.922005555631733 ] } },
{ "type": "Feature", "properties": { "OBJECTID": 7668, "KGISHE_ClgID": 343, "DepartmentCode": "C-1399", "KGISWardID": null, "KGISVillageID": 3351, "KGISCode": "29579055828032070000HECEDINCOLOCO0004", "HE_ClgName": "Appa Institute of Engineering & Technology, Gulbarga", "Category": "Engineering College" }, "geometry": { "type": "Point", "coordinates": [ 76.823763888917952, 17.32934166737563 ] } },
{ "type": "Feature", "properties": { "OBJECTID": 7669, "KGISHE_ClgID": 344, "DepartmentCode": "C-1400", "KGISWardID": null, "KGISVillageID": 14765, "KGISCode": "29569055246088960000HECEDINCOLOCO0002", "HE_ClgName": "N M A M Institute of Technology, Nitte", "Category": "Engineering College" }, "geometry": { "type": "Point", "coordinates": [ 74.933969443681988, 13.182991667202387 ] } },
{ "type": "Feature", "properties": { "OBJECTID": 6470, "KGISHE_ClgID": 345, "DepartmentCode": "C-1401", "KGISWardID": null, "KGISVillageID": 11791, "KGISCode": "29567055128031270000HECEDINCOLOCO0004", "HE_ClgName": "U. B. D. T College of Engineering,  Constituent College Of V.T.U, Davangere", "Category": "Engineering College" }, "geometry": { "type": "Point", "coordinates": [ 75.917652778004225, 14.451930556302896 ] } },
{ "type": "Feature", "properties": { "OBJECTID": 7670, "KGISHE_ClgID": 346, "DepartmentCode": "C-1402", "KGISWardID": null, "KGISVillageID": 26102, "KGISCode": "29575055616174540000HECEDINCOLOCO0001", "HE_ClgName": "Mangalore Institute of Engg. & Technology, Mangalore", "Category": "Engineering College" }, "geometry": { "type": "Point", "coordinates": [ 74.965247221868481, 13.051197221661866 ] } },
{ "type": "Feature", "properties": { "OBJECTID": 6471, "KGISHE_ClgID": 347, "DepartmentCode": "C-1403", "KGISWardID": null, "KGISVillageID": 15230, "KGISCode": "29572055426127910000HECEDINCOLOCO0001", "HE_ClgName": "Nadgir Institute of Engg. & Tech., Bangalore", "Category": "Engineering College" }, "geometry": { "type": "Point", "coordinates": [ 77.471944443868722, 13.058500000300434 ] } },
{ "type": "Feature", "properties": { "OBJECTID": 7671, "KGISHE_ClgID": 348, "DepartmentCode": "C-1404", "KGISWardID": null, "KGISVillageID": 15586, "KGISCode": "29572055436130620000HECEDINCOLOCO0002", "HE_ClgName": "Rajarajesheshwari College of Engineering, Bangalore", "Category": "Engineering College" }, "geometry": { "type": "Point", "coordinates": [ 77.45035555611085, 12.88670000025955 ] } },
{ "type": "Feature", "properties": { "OBJECTID": 7672, "KGISHE_ClgID": 349, "DepartmentCode": "C-1405", "KGISWardID": null, "KGISVillageID": 26171, "KGISCode": "29575055616175020000HECEDINCOLOCO0001", "HE_ClgName": "Shree Devi Institute of Technology, Mangalore", "Category": "Engineering College" }, "geometry": { "type": "Point", "coordinates": [ 74.871097222408451, 12.952802777937665 ] } },
{ "type": "Feature", "properties": { "OBJECTID": 7673, "KGISHE_ClgID": 350, "DepartmentCode": "C-1406", "KGISWardID": null, "KGISVillageID": 21409, "KGISCode": "29572055428031620000HECEDINCOLOCO0043", "HE_ClgName": "C M R Institute of Technology, Bangalore", "Category": "Engineering College" }, "geometry": { "type": "Point", "coordinates": [ 77.711763889144805, 12.966619444291808 ] } },
{ "type": "Feature", "properties": { "OBJECTID": 6427, "KGISHE_ClgID": 351, "DepartmentCode": "C-1407", "KGISWardID": null, "KGISVillageID": 20210, "KGISCode": "29583056036253170000HECEDINCOLOCO0001", "HE_ClgName": "Nagarjuna College of Engg. & Technology, Bangalore", "Category": "Engineering College" }, "geometry": { "type": "Point", "coordinates": [ 77.728230556076952, 13.35101388872604 ] } },
{ "type": "Feature", "properties": { "OBJECTID": 6428, "KGISHE_ClgID": 352, "DepartmentCode": "C-1408", "KGISWardID": null, "KGISVillageID": 15688, "KGISCode": "29572055428031620000HECEDINCOLOCO0044", "HE_ClgName": "P E S Institute of Technology, Bangalore", "Category": "Engineering College" }, "geometry": { "type": "Point", "coordinates": [ 77.534344443619418, 12.934361110650965 ] } },
{ "type": "Feature", "properties": { "OBJECTID": 6429, "KGISHE_ClgID": 353, "DepartmentCode": "C-1409", "KGISWardID": null, "KGISVillageID": 1337, "KGISCode": "29555054375975680000HECEDINCOLOCO0001", "HE_ClgName": "Hirasugar Institute of Technology, Nidasoshi", "Category": "Engineering College" }, "geometry": { "type": "Point", "coordinates": [ 74.526922222187778, 16.295019444273354 ] } },
{ "type": "Feature", "properties": { "OBJECTID": 6430, "KGISHE_ClgID": 354, "DepartmentCode": "C-1410", "KGISWardID": null, "KGISVillageID": 15591, "KGISCode": "29572055428031620000HECEDINCOLOCO0045", "HE_ClgName": "J S S Academy of Technical Education, Bangalore", "Category": "Engineering College" }, "geometry": { "type": "Point", "coordinates": [ 77.50452499999713, 12.902905555817844 ] } },
{ "type": "Feature", "properties": { "OBJECTID": 6431, "KGISHE_ClgID": 355, "DepartmentCode": "C-1411", "KGISWardID": null, "KGISVillageID": 7777, "KGISCode": "29564054958031070000HECEDINCOLOCO0001", "HE_ClgName": "S T J Institute of Technology, Ranebennur", "Category": "Engineering College" }, "geometry": { "type": "Point", "coordinates": [ 75.659172222304647, 14.597952777737246 ] } },
{ "type": "Feature", "properties": { "OBJECTID": 6432, "KGISHE_ClgID": 356, "DepartmentCode": "C-1412", "KGISWardID": null, "KGISVillageID": 28471, "KGISCode": "29577055728031940000HECEDINCOLOCO0008", "HE_ClgName": "Sri Jayachamarajendra College of Engg., Mysore", "Category": "Engineering College" }, "geometry": { "type": "Point", "coordinates": [ 76.613477777959659, 12.313141666816074 ] } },
{ "type": "Feature", "properties": { "OBJECTID": 6433, "KGISHE_ClgID": 357, "DepartmentCode": "C-1413", "KGISWardID": null, "KGISVillageID": 15693, "KGISCode": "29572055428031620000HECEDINCOLOCO0046", "HE_ClgName": "Dayananda Sagar College of Engineering, Bangalore", "Category": "Engineering College" }, "geometry": { "type": "Point", "coordinates": [ 77.566241667412569, 12.908502777719209 ] } },
{ "type": "Feature", "properties": { "OBJECTID": 6434, "KGISHE_ClgID": 358, "DepartmentCode": "C-1414", "KGISWardID": null, "KGISVillageID": 15311, "KGISCode": "29572055426128790000HECEDINCOLOCO0002", "HE_ClgName": "Acharyar Nrv School of Architecture, Bangalore", "Category": "Engineering College" }, "geometry": { "type": "Point", "coordinates": [ 77.48207777813316, 13.084149999680225 ] } },
{ "type": "Feature", "properties": { "OBJECTID": 6465, "KGISHE_ClgID": 359, "DepartmentCode": "C-1415", "KGISWardID": null, "KGISVillageID": 15480, "KGISCode": "29572055428031620000HECEDINCOLOCO0047", "HE_ClgName": "V.T.U Extension  Centre, United Technologies Ltd,  Bangalore", "Category": "Engineering College" }, "geometry": { "type": "Point", "coordinates": [ 77.548338888753023, 13.015772222196428 ] } },
{ "type": "Feature", "properties": { "OBJECTID": 6435, "KGISHE_ClgID": 360, "DepartmentCode": "C-1416", "KGISWardID": null, "KGISVillageID": 21420, "KGISCode": "29572055428031620000HECEDINCOLOCO0048", "HE_ClgName": "Camridge Institute of Technology, Bangalore", "Category": "Engineering College" }, "geometry": { "type": "Point", "coordinates": [ 77.704250000149258, 13.012549999663891 ] } },
{ "type": "Feature", "properties": { "OBJECTID": 7707, "KGISHE_ClgID": 361, "DepartmentCode": "C-1417", "KGISWardID": null, "KGISVillageID": 30517, "KGISCode": "29582055966236390000HECEDINCOLOCO0002", "HE_ClgName": "S J C Institute of Technology, Chickballapur (Qip Centre)", "Category": "Engineering College" }, "geometry": { "type": "Point", "coordinates": [ 77.728872222007396, 13.394869443711269 ] } },
{ "type": "Feature", "properties": { "OBJECTID": 6436, "KGISHE_ClgID": 362, "DepartmentCode": "C-1418", "KGISWardID": null, "KGISVillageID": 21476, "KGISCode": "29572055446131220000HECEDINCOLOCO0001", "HE_ClgName": "Bangalore Technological Institute, Bangalore", "Category": "Engineering College" }, "geometry": { "type": "Point", "coordinates": [ 77.69919722163425, 12.884791667443064 ] } },
{ "type": "Feature", "properties": { "OBJECTID": 6437, "KGISHE_ClgID": 363, "DepartmentCode": "C-1419", "KGISWardID": null, "KGISVillageID": 29970, "KGISCode": "29584056066260880000HECEDINCOLOCO0001", "HE_ClgName": "Ghousia College of Engineering, Ramanagaram", "Category": "Engineering College" }, "geometry": { "type": "Point", "coordinates": [ 77.293430555554167, 12.733658332624655 ] } },
{ "type": "Feature", "properties": { "OBJECTID": 6466, "KGISHE_ClgID": 364, "DepartmentCode": "C-1420", "KGISWardID": null, "KGISVillageID": 19588, "KGISCode": "29571055378031570000HECEDINCOLOCO0003", "HE_ClgName": "Siddaganga Institute of Technology, Tumkur (Qip Centre)", "Category": "Engineering College" }, "geometry": { "type": "Point", "coordinates": [ 77.127586110822065, 13.330955556061955 ] } },
{ "type": "Feature", "properties": { "OBJECTID": 6438, "KGISHE_ClgID": 365, "DepartmentCode": "C-1421", "KGISWardID": null, "KGISVillageID": 15451, "KGISCode": "29572055426129500000HECEDINCOLOCO0001", "HE_ClgName": "Sri Krishana Institute of Technology,  Bangalore", "Category": "Engineering College" }, "geometry": { "type": "Point", "coordinates": [ 77.499549999943241, 13.074680556223553 ] } },
{ "type": "Feature", "properties": { "OBJECTID": 6445, "KGISHE_ClgID": 366, "DepartmentCode": "C-1422", "KGISWardID": null, "KGISVillageID": 15158, "KGISCode": "29572055428031620000HECEDINCOLOCO0049", "HE_ClgName": "B M S (Even) College of Engineering, Bangalore", "Category": "Engineering College" }, "geometry": { "type": "Point", "coordinates": [ 77.566652778040961, 12.942300000148794 ] } },
{ "type": "Feature", "properties": { "OBJECTID": 6439, "KGISHE_ClgID": 367, "DepartmentCode": "C-1423", "KGISWardID": null, "KGISVillageID": 1029, "KGISCode": "29555054385977260000HECEDINCOLOCO0001", "HE_ClgName": "Angadi Institute of Technology & Mgmt., Belagavi", "Category": "Engineering College" }, "geometry": { "type": "Point", "coordinates": [ 74.473872222149126, 15.846797221630236 ] } },
{ "type": "Feature", "properties": { "OBJECTID": 6440, "KGISHE_ClgID": 368, "DepartmentCode": "C-1424", "KGISWardID": null, "KGISVillageID": 15377, "KGISCode": "29572055428031620000HECEDINCOLOCO0050", "HE_ClgName": "Sambhram Institute of Technology, Bangalore", "Category": "Engineering College" }, "geometry": { "type": "Point", "coordinates": [ 77.545794444136405, 13.089480556087409 ] } },
{ "type": "Feature", "properties": { "OBJECTID": 6441, "KGISHE_ClgID": 369, "DepartmentCode": "C-1425", "KGISWardID": null, "KGISVillageID": 5137, "KGISCode": "29565054968031080000HECEDINCOLOCO0001", "HE_ClgName": "Govt. Engineering College, Bellary", "Category": "Engineering College" }, "geometry": { "type": "Point", "coordinates": [ 75.935749999839913, 15.017213889248668 ] } },
{ "type": "Feature", "properties": { "OBJECTID": 6442, "KGISHE_ClgID": 370, "DepartmentCode": "C-1426", "KGISWardID": null, "KGISVillageID": 28460, "KGISCode": "29577055728031940000HECEDINCOLOCO0009", "HE_ClgName": "NIE Institute of Technology, Mysore", "Category": "Engineering College" }, "geometry": { "type": "Point", "coordinates": [ 76.641231000106927, 12.283922999811193 ] } },
{ "type": "Feature", "properties": { "OBJECTID": 6443, "KGISHE_ClgID": 371, "DepartmentCode": "C-1427", "KGISWardID": null, "KGISVillageID": 15710, "KGISCode": "29572055428031620000HECEDINCOLOCO0051", "HE_ClgName": "Yellamma Dasappa Institute of Tech., Bangalore", "Category": "Engineering College" }, "geometry": { "type": "Point", "coordinates": [ 77.547230556000926, 12.882366666669176 ] } },
{ "type": "Feature", "properties": { "OBJECTID": 7674, "KGISHE_ClgID": 372, "DepartmentCode": "C-1428", "KGISWardID": null, "KGISVillageID": 11796, "KGISCode": "29567055128031270000HECEDINCOLOCO0005", "HE_ClgName": "Bapuji Institute of Engineering & Technology, Davanagere", "Category": "Engineering College" }, "geometry": { "type": "Point", "coordinates": [ 75.901725000073668, 14.44492500002416 ] } },
{ "type": "Feature", "properties": { "OBJECTID": 7675, "KGISHE_ClgID": 373, "DepartmentCode": "C-1429", "KGISWardID": null, "KGISVillageID": 21397, "KGISCode": "29572055428031620000HECEDINCOLOCO0052", "HE_ClgName": "Gopalan College of Engineering & Management, Bangalore", "Category": "Engineering College" }, "geometry": { "type": "Point", "coordinates": [ 77.717019999736806, 12.984935000137467 ] } },
{ "type": "Feature", "properties": { "OBJECTID": 6467, "KGISHE_ClgID": 374, "DepartmentCode": "C-1430", "KGISWardID": null, "KGISVillageID": 15475, "KGISCode": "29572055428031620000HECEDINCOLOCO0053", "HE_ClgName": "V.T.U Extension Centre, IR Rasta, Bangalore", "Category": "Engineering College" }, "geometry": { "type": "Point", "coordinates": [ 77.513611110733024, 13.024988888760429 ] } },
{ "type": "Feature", "properties": { "OBJECTID": 6446, "KGISHE_ClgID": 375, "DepartmentCode": "C-1431", "KGISWardID": null, "KGISVillageID": 30092, "KGISCode": "29572055428031620000HECEDINCOLOCO0054", "HE_ClgName": "Govt. S K S J Technological Institute (Eve), Bangalore", "Category": "Engineering College" }, "geometry": { "type": "Point", "coordinates": [ 77.587366666804357, 12.976474999760097 ] } },
{ "type": "Feature", "properties": { "OBJECTID": 7708, "KGISHE_ClgID": 376, "DepartmentCode": "C-1432", "KGISWardID": null, "KGISVillageID": 6692, "KGISCode": "29562054756023760000HECEDINCOLOCO0002", "HE_ClgName": "B V B College of Engineering, Hubli (Qip Centre)", "Category": "Engineering College" }, "geometry": { "type": "Point", "coordinates": [ 75.123074999550795, 15.368511111219634 ] } },
{ "type": "Feature", "properties": { "OBJECTID": 7676, "KGISHE_ClgID": 377, "DepartmentCode": "C-1433", "KGISWardID": null, "KGISVillageID": 14928, "KGISCode": "29569055236088250000HECEDINCOLOCO0001", "HE_ClgName": "Shri Madhwa Vadiraja Institute of Technology  & Management, Bantakal", "Category": "Engineering College" }, "geometry": { "type": "Point", "coordinates": [ 74.784433999623616, 13.254322999969146 ] } },
{ "type": "Feature", "properties": { "OBJECTID": 7709, "KGISHE_ClgID": 378, "DepartmentCode": "C-1434", "KGISWardID": null, "KGISVillageID": 14765, "KGISCode": "29569055246088960000HECEDINCOLOCO0003", "HE_ClgName": "N M A M Institute of Technology, Nitte (Qip Centre)", "Category": "Engineering College" }, "geometry": { "type": "Point", "coordinates": [ 74.933913889369705, 13.182869444182122 ] } },
{ "type": "Feature", "properties": { "OBJECTID": 6459, "KGISHE_ClgID": 379, "DepartmentCode": "C-1435", "KGISWardID": null, "KGISVillageID": 28460, "KGISCode": "29577055728031940000HECEDINCOLOCO0010", "HE_ClgName": "V.T.U Extension Centre, National Institute of Engineering, Mysore", "Category": "Engineering College" }, "geometry": { "type": "Point", "coordinates": [ 76.641186110748976, 12.283772221902597 ] } },
{ "type": "Feature", "properties": { "OBJECTID": 7677, "KGISHE_ClgID": 380, "DepartmentCode": "C-1436", "KGISWardID": null, "KGISVillageID": 29852, "KGISCode": "29584056066261420000HECEDINCOLOCO0001", "HE_ClgName": "Amrutha Institute of Engineering & Management Sciences, Bangalore", "Category": "Engineering College" }, "geometry": { "type": "Point", "coordinates": [ 77.410676000199445, 12.761815000382834 ] } },
{ "type": "Feature", "properties": { "OBJECTID": 6472, "KGISHE_ClgID": 381, "DepartmentCode": "C-1437", "KGISWardID": null, "KGISVillageID": 20905, "KGISCode": "29583056016249490000HECEDINCOLOCO0002", "HE_ClgName": "P N S Womens Institute of Technology,  Bangalore", "Category": "Engineering College" }, "geometry": { "type": "Point", "coordinates": [ 77.404222222325032, 13.084180555622092 ] } },
{ "type": "Feature", "properties": { "OBJECTID": 6447, "KGISHE_ClgID": 382, "DepartmentCode": "C-1438", "KGISWardID": null, "KGISVillageID": 28460, "KGISCode": "29577055728031940000HECEDINCOLOCO0011", "HE_ClgName": "National Institute of Engineering Even),  Mysore", "Category": "Engineering College" }, "geometry": { "type": "Point", "coordinates": [ 76.640750000067442, 12.284147221672407 ] } },
{ "type": "Feature", "properties": { "OBJECTID": 7678, "KGISHE_ClgID": 383, "DepartmentCode": "C-1439", "KGISWardID": null, "KGISVillageID": 936, "KGISCode": "29555054388030330000HECEDINCOLOCO0009", "HE_ClgName": "Gogte Institute of Technology, Belgaum", "Category": "Engineering College" }, "geometry": { "type": "Point", "coordinates": [ 74.487133332568249, 15.81505277844736 ] } },
{ "type": "Feature", "properties": { "OBJECTID": 7679, "KGISHE_ClgID": 384, "DepartmentCode": "C-1440", "KGISWardID": null, "KGISVillageID": 15572, "KGISCode": "29572055436130220000HECEDINCOLOCO0001", "HE_ClgName": "ACS College of Engineering, Bangalore", "Category": "Engineering College" }, "geometry": { "type": "Point", "coordinates": [ 77.465449999967831, 12.891488889153544 ] } },
{ "type": "Feature", "properties": { "OBJECTID": 6460, "KGISHE_ClgID": 716, "DepartmentCode": "C-17613", "KGISWardID": null, "KGISVillageID": 30092, "KGISCode": "29572055428031620000HECEDINCOLOCO0057", "HE_ClgName": "University Vishweshwaraya College of Engineering", "Category": "Engineering College" }, "geometry": { "type": "Point", "coordinates": [ 77.585661111418204, 12.975697221612108 ] } },
{ "type": "Feature", "properties": { "OBJECTID": 6461, "KGISHE_ClgID": 1560, "DepartmentCode": "C-36483", "KGISWardID": null, "KGISVillageID": 19628, "KGISCode": "29571055378031570000HECEDINCOLOCO0004", "HE_ClgName": "Sri Siddhartha Institute of Technology, Tumkur", "Category": "Engineering College" }, "geometry": { "type": "Point", "coordinates": [ 77.091347222217024, 13.32062499973239 ] } },
{ "type": "Feature", "properties": { "OBJECTID": 7680, "KGISHE_ClgID": 1642, "DepartmentCode": "C-45307", "KGISWardID": null, "KGISVillageID": 15553, "KGISCode": "29572055436130360000HECEDINCOLOCO0002", "HE_ClgName": "Dayananda Sagar Academy of Technology And Management, Bangalore", "Category": "Engineering College" }, "geometry": { "type": "Point", "coordinates": [ 77.514791667217111, 12.825294444080008 ] } },
{ "type": "Feature", "properties": { "OBJECTID": 7681, "KGISHE_ClgID": 1643, "DepartmentCode": "C-45308", "KGISWardID": null, "KGISVillageID": 15550, "KGISCode": "29572055436130390000HECEDINCOLOCO0001", "HE_ClgName": "Jyothy Institute of Technology, Bangalore", "Category": "Engineering College" }, "geometry": { "type": "Point", "coordinates": [ 77.511677778324767, 12.84087777783771 ] } },
{ "type": "Feature", "properties": { "OBJECTID": 7682, "KGISHE_ClgID": 1644, "DepartmentCode": "C-45309", "KGISWardID": null, "KGISVillageID": 2377, "KGISCode": "29558054576001890000HECEDINCOLOCO0001", "HE_ClgName": "Lingaraj Appa Engineering College, Bidar", "Category": "Engineering College" }, "geometry": { "type": "Point", "coordinates": [ 77.526533333081559, 17.866277777610932 ] } },
{ "type": "Feature", "properties": { "OBJECTID": 6448, "KGISHE_ClgID": 1645, "DepartmentCode": "C-45310", "KGISWardID": null, "KGISVillageID": 11747, "KGISCode": "29567055128031270000HECEDINCOLOCO0035", "HE_ClgName": "Jain Institute of Technology, Davanagere", "Category": "Engineering College" }, "geometry": { "type": "Point", "coordinates": [ 75.957305556208226, 14.431341667167262 ] } },
{ "type": "Feature", "properties": { "OBJECTID": 7683, "KGISHE_ClgID": 1646, "DepartmentCode": "C-45311", "KGISWardID": null, "KGISVillageID": 3351, "KGISCode": "29579055828032070000HECEDINCOLOCO0018", "HE_ClgName": "Godutai Engineering College For Women, Sharanabasaveshwar College Campus, Gulbarga", "Category": "Engineering College" }, "geometry": { "type": "Point", "coordinates": [ 76.822327778172635, 17.324502778146766 ] } },
{ "type": "Feature", "properties": { "OBJECTID": 7684, "KGISHE_ClgID": 1647, "DepartmentCode": "C-45312", "KGISWardID": null, "KGISVillageID": 3363, "KGISCode": "29579055826202660000HECEDINCOLOCO0005", "HE_ClgName": "Shetty Institute of Technology, Gulbarga", "Category": "Engineering College" }, "geometry": { "type": "Point", "coordinates": [ 76.868835578651158, 17.288255880442726 ] } },
{ "type": "Feature", "properties": { "OBJECTID": 7685, "KGISHE_ClgID": 1648, "DepartmentCode": "C-45313", "KGISWardID": null, "KGISVillageID": 24310, "KGISCode": "29573055508031680000HECEDINCOLOCO0009", "HE_ClgName": "G Madegowda Institute of Technology, Mandya", "Category": "Engineering College" }, "geometry": { "type": "Point", "coordinates": [ 76.883952777820767, 12.520458332572069 ] } },
{ "type": "Feature", "properties": { "OBJECTID": 7686, "KGISHE_ClgID": 1674, "DepartmentCode": "C-47256", "KGISWardID": null, "KGISVillageID": 15447, "KGISCode": "29572055428031620000HECEDINCOLOCO0405", "HE_ClgName": "BMS School of Architecture, Yelahanka", "Category": "Engineering College" }, "geometry": { "type": "Point", "coordinates": [ 77.586011111009441, 13.094452777806577 ] } },
{ "type": "Feature", "properties": { "OBJECTID": 7687, "KGISHE_ClgID": 1675, "DepartmentCode": "C-47257", "KGISWardID": null, "KGISVillageID": 15295, "KGISCode": "29572055426128730000HECEDINCOLOCO0001", "HE_ClgName": "Shri Pillappa College of Engineering, Hesaraghatta Hobli", "Category": "Engineering College" }, "geometry": { "type": "Point", "coordinates": [ 77.516934000279932, 13.124584000077778 ] } },
{ "type": "Feature", "properties": { "OBJECTID": 7688, "KGISHE_ClgID": 1676, "DepartmentCode": "C-47258", "KGISWardID": null, "KGISVillageID": 31453, "KGISCode": "29575055616174880000HECEDINCOLOCO0001", "HE_ClgName": "Mangalore Marine College And Technology, Mangalore", "Category": "Engineering College" }, "geometry": { "type": "Point", "coordinates": [ 74.995711111380913, 12.971197222387611 ] } },
{ "type": "Feature", "properties": { "OBJECTID": 7689, "KGISHE_ClgID": 1677, "DepartmentCode": "C-47259", "KGISWardID": null, "KGISVillageID": 9124, "KGISCode": "29563054786025770000HECEDINCOLOCO0001", "HE_ClgName": "Girijabai Sail Institute of Technology, Karwar", "Category": "Engineering College" }, "geometry": { "type": "Point", "coordinates": [ 74.099897222370586, 14.911347222100471 ] } },
{ "type": "Feature", "properties": { "OBJECTID": 6468, "KGISHE_ClgID": 1678, "DepartmentCode": "C-47266", "KGISWardID": null, "KGISVillageID": 15508, "KGISCode": "29572055428031620000HECEDINCOLOCO0406", "HE_ClgName": "Honeywell Technologies Solutions Lab Pvt Ltd, Bangalore", "Category": "Engineering College" }, "geometry": { "type": "Point", "coordinates": [ 77.599366666622899, 12.899505555915146 ] } },
{ "type": "Feature", "properties": { "OBJECTID": 7711, "KGISHE_ClgID": 1679, "DepartmentCode": "C-47267", "KGISWardID": null, "KGISVillageID": 15465, "KGISCode": "29572055428031620000HECEDINCOLOCO0407", "HE_ClgName": "Air Force Technical College, Bangalore", "Category": "Engineering College" }, "geometry": { "type": "Point", "coordinates": [ 77.52269444410986, 13.049861111358076 ] } },
{ "type": "Feature", "properties": { "OBJECTID": 6462, "KGISHE_ClgID": 1680, "DepartmentCode": "C-47268", "KGISWardID": null, "KGISVillageID": 15465, "KGISCode": "29572055428031620000HECEDINCOLOCO0408", "HE_ClgName": "Air Force Test Pilots School, Bangalore", "Category": "Engineering College" }, "geometry": { "type": "Point", "coordinates": [ 77.522822222458217, 13.051763888823373 ] } },
{ "type": "Feature", "properties": { "OBJECTID": 7690, "KGISHE_ClgID": 1797, "DepartmentCode": "C-50028", "KGISWardID": null, "KGISVillageID": 20162, "KGISCode": "29583056036252850000HECEDINCOLOCO0001", "HE_ClgName": "Adarsha Institute of Technology, Lingadjeera Gollahalli, Devanahalli", "Category": "Engineering College" }, "geometry": { "type": "Point", "coordinates": [ 77.610358332540699, 13.245469443977839 ] } },
{ "type": "Feature", "properties": { "OBJECTID": 7691, "KGISHE_ClgID": 1798, "DepartmentCode": "C-50030", "KGISWardID": null, "KGISVillageID": 628, "KGISCode": "29556054455985720000HECEDINCOLOCO0002", "HE_ClgName": "Biluru Gurubasava Mahaswamiji Institute of Technology, Mudhol", "Category": "Engineering College" }, "geometry": { "type": "Point", "coordinates": [ 75.285931000055072, 16.333298000102683 ] } },
{ "type": "Feature", "properties": { "OBJECTID": 7712, "KGISHE_ClgID": 1799, "DepartmentCode": "C-50031", "KGISWardID": null, "KGISVillageID": 15413, "KGISCode": "29572055428031620000HECEDINCOLOCO0413", "HE_ClgName": "Impact School of Architecture, Impact Campus, Sahakara Nagara", "Category": "Engineering College" }, "geometry": { "type": "Point", "coordinates": [ 77.581416666923275, 13.054222222354046 ] } },
{ "type": "Feature", "properties": { "OBJECTID": 7713, "KGISHE_ClgID": 1800, "DepartmentCode": "C-50033", "KGISWardID": null, "KGISVillageID": 15582, "KGISCode": "29572055428031620000HECEDINCOLOCO0414", "HE_ClgName": "SJB School of Architecture and Planning, BGS Health and Education City, Kengeri", "Category": "Engineering College" }, "geometry": { "type": "Point", "coordinates": [ 77.495166666818704, 12.897722222099571 ] } },
{ "type": "Feature", "properties": { "OBJECTID": 7714, "KGISHE_ClgID": 1835, "DepartmentCode": "C-50741", "KGISWardID": null, "KGISVillageID": 15588, "KGISCode": "29572055428031620000HECEDINCOLOCO0419", "HE_ClgName": "R V Colllege of Architecture", "Category": "Engineering College" }, "geometry": { "type": "Point", "coordinates": [ 77.512833426422986, 12.878361118336388 ] } },
{ "type": "Feature", "properties": { "OBJECTID": 7715, "KGISHE_ClgID": 1861, "DepartmentCode": "C-51039", "KGISWardID": null, "KGISVillageID": 497, "KGISCode": "29556054435984360000HECEDINCOLOCO0003", "HE_ClgName": "Jain Acharya Gundharnandi Maharaj Institute of Technology, Jamkhandi", "Category": "Engineering College" }, "geometry": { "type": "Point", "coordinates": [ 75.300927326263277, 16.517309879419411 ] } },
{ "type": "Feature", "properties": { "OBJECTID": 7716, "KGISHE_ClgID": 1864, "DepartmentCode": "C-51271", "KGISWardID": null, "KGISVillageID": 24290, "KGISCode": "29573055506144660000HECEDINCOLOCO0001", "HE_ClgName": "Cauvery Institute of Technology", "Category": "Engineering College" }, "geometry": { "type": "Point", "coordinates": [ 76.835125472055083, 12.50977102308455 ] } },
{ "type": "Feature", "properties": { "OBJECTID": 7717, "KGISHE_ClgID": 1876, "DepartmentCode": "C-51535", "KGISWardID": null, "KGISVillageID": 8816, "KGISCode": "29563054888030990000HECEDINCOLOCO0007", "HE_ClgName": "Anjuman Institute of Technology and Management ", "Category": "Engineering College" }, "geometry": { "type": "Point", "coordinates": [ 74.557650263085364, 13.997244431473284 ] } },
{ "type": "Feature", "properties": { "OBJECTID": 7718, "KGISHE_ClgID": 1894, "DepartmentCode": "C-51646", "KGISWardID": null, "KGISVillageID": 15452, "KGISCode": "29572055428031620000HECEDINCOLOCO0428", "HE_ClgName": "RR School of Architecture", "Category": "Engineering College" }, "geometry": { "type": "Point", "coordinates": [ 77.511077733530428, 13.071052060802129 ] } },
{ "type": "Feature", "properties": { "OBJECTID": 7719, "KGISHE_ClgID": 1902, "DepartmentCode": "C-51697", "KGISWardID": null, "KGISVillageID": 28455, "KGISCode": "29577055726188390000HECEDINCOLOCO0001", "HE_ClgName": "Mysore School of Architecture", "Category": "Engineering College" }, "geometry": { "type": "Point", "coordinates": [ 76.606042815512808, 12.26754808775439 ] } },
{ "type": "Feature", "properties": { "OBJECTID": 7720, "KGISHE_ClgID": 1950, "DepartmentCode": "C-52938", "KGISWardID": null, "KGISVillageID": 21397, "KGISCode": "29572055428031620000HECEDINCOLOCO0436", "HE_ClgName": "Gopalan School of Architecture and Planning", "Category": "Engineering College" }, "geometry": { "type": "Point", "coordinates": [ 77.7170887539923, 12.986359502392146 ] } },
{ "type": "Feature", "properties": { "OBJECTID": 7721, "KGISHE_ClgID": 1954, "DepartmentCode": "C-53295", "KGISWardID": null, "KGISVillageID": 15414, "KGISCode": "29572055428031620000HECEDINCOLOCO0437", "HE_ClgName": "Aditya Academy of Architecture & Design", "Category": "Engineering College" }, "geometry": { "type": "Point", "coordinates": [ 77.612815130050564, 13.104141578371465 ] } },
{ "type": "Feature", "properties": { "OBJECTID": 7722, "KGISHE_ClgID": 1961, "DepartmentCode": "C-53606", "KGISWardID": null, "KGISVillageID": 15623, "KGISCode": "29572055436130060000HECEDINCOLOCO0001", "HE_ClgName": "Shree Vinayaka Institute of Technology", "Category": "Engineering College" }, "geometry": { "type": "Point", "coordinates": [ 77.428832975926625, 12.898192804216839 ] } },
{ "type": "Feature", "properties": { "OBJECTID": 7723, "KGISHE_ClgID": 1976, "DepartmentCode": "C-56446", "KGISWardID": null, "KGISVillageID": 26079, "KGISCode": "29575055618031810000HECEDINCOLOCO0065", "HE_ClgName": "A J Institute of Engineering and Technology Mangaluru", "Category": "Engineering College" }, "geometry": { "type": "Point", "coordinates": [ 74.839534048131455, 12.906479068548453 ] } },
{ "type": "Feature", "properties": { "OBJECTID": 7724, "KGISHE_ClgID": 1977, "DepartmentCode": "C-56453", "KGISWardID": null, "KGISVillageID": 15705, "KGISCode": "29572055436130400000HECEDINCOLOCO0001", "HE_ClgName": "K S School of Architecture", "Category": "Engineering College" }, "geometry": { "type": "Point", "coordinates": [ 77.543381966364635, 12.859373569744124 ] } },
{ "type": "Feature", "properties": { "OBJECTID": 7725, "KGISHE_ClgID": 1979, "DepartmentCode": "C-57572", "KGISWardID": null, "KGISVillageID": 19689, "KGISCode": "29571055376113940000HECEDINCOLOCO0001", "HE_ClgName": "H M S School of Architecture", "Category": "Engineering College" }, "geometry": { "type": "Point", "coordinates": [ 77.162912941764134, 13.296504624658095 ] } },
{ "type": "Feature", "properties": { "OBJECTID": 7726, "KGISHE_ClgID": 1981, "DepartmentCode": "C-57952", "KGISWardID": null, "KGISVillageID": 15158, "KGISCode": "29572055428031620000HECEDINCOLOCO0441", "HE_ClgName": "BMS College of Architecture", "Category": "Engineering College" }, "geometry": { "type": "Point", "coordinates": [ 77.566298783076107, 12.942407225009152 ] } },
{ "type": "Feature", "properties": { "OBJECTID": 7727, "KGISHE_ClgID": 1982, "DepartmentCode": "C-58004", "KGISWardID": null, "KGISVillageID": 15394, "KGISCode": "29572055428031620000HECEDINCOLOCO0442", "HE_ClgName": "Nitte School of Architecture", "Category": "Engineering College" }, "geometry": { "type": "Point", "coordinates": [ 77.587690662571092, 13.128472796868879 ] } },
{ "type": "Feature", "properties": { "OBJECTID": 7728, "KGISHE_ClgID": 1983, "DepartmentCode": "C-58013", "KGISWardID": null, "KGISVillageID": 6692, "KGISCode": "29562054756023760000HECEDINCOLOCO0028", "HE_ClgName": "Jain College of Engineering and Technology", "Category": "Engineering College" }, "geometry": { "type": "Point", "coordinates": [ 75.118300553633091, 15.394005861654508 ] } },
{ "type": "Feature", "properties": { "OBJECTID": 7729, "KGISHE_ClgID": 1985, "DepartmentCode": "C-60251", "KGISWardID": null, "KGISVillageID": 15340, "KGISCode": "29572055426128950000HECEDINCOLOCO0003", "HE_ClgName": "Sir M V School of Architecture", "Category": "Engineering College" }, "geometry": { "type": "Point", "coordinates": [ 77.610020968561258, 13.151028632721486 ] } },
{ "type": "Feature", "properties": { "OBJECTID": 6463, "KGISHE_ClgID": 2051, "DepartmentCode": "C-7241", "KGISWardID": null, "KGISVillageID": 14983, "KGISCode": "29569055238031410000HECEDINCOLOCO0012", "HE_ClgName": "Manipal Centre For Information Sciences, Manipal", "Category": "Engineering College" }, "geometry": { "type": "Point", "coordinates": [ 74.787999999959439, 13.347103999803526 ] } },
{ "type": "Feature", "properties": { "OBJECTID": 6464, "KGISHE_ClgID": 2052, "DepartmentCode": "C-7252", "KGISWardID": null, "KGISVillageID": 14969, "KGISCode": "29569055238031410000HECEDINCOLOCO0013", "HE_ClgName": "Manipal Institute of Technology, Manipal", "Category": "Engineering College" }, "geometry": { "type": "Point", "coordinates": [ 74.792818999940309, 13.352658999916519 ] } }
]
}
