{
"type": "FeatureCollection",
"name": "Bike Ambulance Location",
"crs": { "type": "name", "properties": { "name": "urn:ogc:def:crs:OGC:1.3:CRS84" } },
"features": [
{ "type": "Feature", "properties": { "OBJECTID": 1, "KGISBAID": 1, "DepartmentCode": "BA1", "KGISVillageID": 926, "KGISWardID": null, "KGISCode": "29555054388030340000HFHFWPUSCRBIA0001", "BAName": "Bike Ambulance-TRAFFIC PS CAMP" }, "geometry": { "type": "Point", "coordinates": [ 74.497674099801316, 15.849695299880885 ] } },
{ "type": "Feature", "properties": { "OBJECTID": 2, "KGISBAID": 2, "DepartmentCode": "BA2", "KGISVillageID": 15693, "KGISWardID": null, "KGISCode": "29572055428031620000HFHFWPUSCRBIA0001", "BAName": "Bike Ambulance-BANASHANKARI BS" }, "geometry": { "type": "Point", "coordinates": [ 77.571354199665976, 12.912473200011414 ] } },
{ "type": "Feature", "properties": { "OBJECTID": 3, "KGISBAID": 3, "DepartmentCode": "BA3", "KGISVillageID": 30092, "KGISWardID": null, "KGISCode": "29572055428031620000HFHFWPUSCRBIA0002", "BAName": "Bike Ambulance-HANUMANTHA NAGAR PS" }, "geometry": { "type": "Point", "coordinates": [ 77.575360900035903, 12.942116599615106 ] } },
{ "type": "Feature", "properties": { "OBJECTID": 4, "KGISBAID": 4, "DepartmentCode": "BA4", "KGISVillageID": 15322, "KGISWardID": null, "KGISCode": "29572055426128970000HFHFWPUSCRBIA0001", "BAName": "Bike Ambulance-AIRPORT TOLL" }, "geometry": { "type": "Point", "coordinates": [ 77.635648600436355, 13.171522299767847 ] } },
{ "type": "Feature", "properties": { "OBJECTID": 5, "KGISBAID": 5, "DepartmentCode": "BA5", "KGISVillageID": 15081, "KGISWardID": null, "KGISCode": "29572055428031620000HFHFWPUSCRBIA0003", "BAName": "Bike Ambulance-GOWRIPALYA SIRSI CIRCLE" }, "geometry": { "type": "Point", "coordinates": [ 77.556568299737606, 12.962889000432995 ] } },
{ "type": "Feature", "properties": { "OBJECTID": 6, "KGISBAID": 6, "DepartmentCode": "BA6", "KGISVillageID": 15081, "KGISWardID": null, "KGISCode": "29572055428031620000HFHFWPUSCRBIA0004", "BAName": "Bike Ambulance-KALASIPALYA PS" }, "geometry": { "type": "Point", "coordinates": [ 77.556568299737606, 12.962889000432995 ] } },
{ "type": "Feature", "properties": { "OBJECTID": 7, "KGISBAID": 7, "DepartmentCode": "BA7", "KGISVillageID": 15081, "KGISWardID": null, "KGISCode": "29572055428031620000HFHFWPUSCRBIA0005", "BAName": "Bike Ambulance-MAJESTIC BS" }, "geometry": { "type": "Point", "coordinates": [ 77.556568299737606, 12.962889000432995 ] } },
{ "type": "Feature", "properties": { "OBJECTID": 8, "KGISBAID": 8, "DepartmentCode": "BA8", "KGISVillageID": 15086, "KGISWardID": null, "KGISCode": "29572055428031620000HFHFWPUSCRBIA0006", "BAName": "Bike Ambulance-HEBBAL FLY OVER" }, "geometry": { "type": "Point", "coordinates": [ 77.597022199846933, 13.035769499855531 ] } },
{ "type": "Feature", "properties": { "OBJECTID": 9, "KGISBAID": 9, "DepartmentCode": "BA9", "KGISVillageID": 21413, "KGISWardID": null, "KGISCode": "29572055428031620000HFHFWPUSCRBIA0007", "BAName": "Bike Ambulance-INDIRANAGAR BDA COMPLEX" }, "geometry": { "type": "Point", "coordinates": [ 77.641154500082266, 12.971891500132736 ] } },
{ "type": "Feature", "properties": { "OBJECTID": 10, "KGISBAID": 10, "DepartmentCode": "BA10", "KGISVillageID": 15558, "KGISWardID": null, "KGISCode": "29572055428031620000HFHFWPUSCRBIA0008", "BAName": "Bike Ambulance-KENGERI PS" }, "geometry": { "type": "Point", "coordinates": [ 77.482697600211466, 12.899622999649779 ] } },
{ "type": "Feature", "properties": { "OBJECTID": 11, "KGISBAID": 11, "DepartmentCode": "BA11", "KGISVillageID": 15703, "KGISWardID": null, "KGISCode": "29572055428031620000HFHFWPUSCRBIA0009", "BAName": "Bike Ambulance-NICE TOLL JUNCTION" }, "geometry": { "type": "Point", "coordinates": [ 77.566548000268654, 12.885703699836601 ] } },
{ "type": "Feature", "properties": { "OBJECTID": 12, "KGISBAID": 12, "DepartmentCode": "BA12", "KGISVillageID": 15524, "KGISWardID": null, "KGISCode": "29572055428031620000HFHFWPUSCRBIA0010", "BAName": "Bike Ambulance-SILK BOARD" }, "geometry": { "type": "Point", "coordinates": [ 77.627107800011245, 12.927923199981755 ] } },
{ "type": "Feature", "properties": { "OBJECTID": 13, "KGISBAID": 13, "DepartmentCode": "BA13", "KGISVillageID": 21420, "KGISWardID": null, "KGISCode": "29572055428031620000HFHFWPUSCRBIA0011", "BAName": "Bike Ambulance-KR PURAM PS" }, "geometry": { "type": "Point", "coordinates": [ 77.687776499624789, 13.004016699844158 ] } },
{ "type": "Feature", "properties": { "OBJECTID": 14, "KGISBAID": 14, "DepartmentCode": "BA14", "KGISVillageID": 21420, "KGISWardID": null, "KGISCode": "29572055428031620000HFHFWPUSCRBIA0012", "BAName": "Bike Ambulance-KR PURAM PS" }, "geometry": { "type": "Point", "coordinates": [ 77.687776499624789, 13.004016699844158 ] } },
{ "type": "Feature", "properties": { "OBJECTID": 15, "KGISBAID": 15, "DepartmentCode": "BA15", "KGISVillageID": 21491, "KGISWardID": null, "KGISCode": "29572055428031620000HFHFWPUSCRBIA0013", "BAName": "Bike Ambulance-VARTHURU PHC" }, "geometry": { "type": "Point", "coordinates": [ 77.741204700207192, 12.938878700099499 ] } },
{ "type": "Feature", "properties": { "OBJECTID": 16, "KGISBAID": 16, "DepartmentCode": "BA16", "KGISVillageID": 15488, "KGISWardID": null, "KGISCode": "29572055428031620000HFHFWPUSCRBIA0014", "BAName": "Bike Ambulance-SUMANAHALLI BRIDGE" }, "geometry": { "type": "Point", "coordinates": [ 77.508283300197419, 12.959944799611742 ] } },
{ "type": "Feature", "properties": { "OBJECTID": 17, "KGISBAID": 17, "DepartmentCode": "BA17", "KGISVillageID": 15491, "KGISWardID": null, "KGISCode": "29572055428031620000HFHFWPUSCRBIA0015", "BAName": "Bike Ambulance-PEENYA PS " }, "geometry": { "type": "Point", "coordinates": [ 77.519676299780585, 13.028513299620071 ] } },
{ "type": "Feature", "properties": { "OBJECTID": 18, "KGISBAID": 18, "DepartmentCode": "BA18", "KGISVillageID": 15369, "KGISWardID": null, "KGISCode": "29572055428031620000HFHFWPUSCRBIA0016", "BAName": "Bike Ambulance-YESHWANTHPUR RH" }, "geometry": { "type": "Point", "coordinates": [ 77.540915600227621, 13.027966099628536 ] } },
{ "type": "Feature", "properties": { "OBJECTID": 19, "KGISBAID": 19, "DepartmentCode": "BA19", "KGISVillageID": 21296, "KGISWardID": null, "KGISCode": "29572055456133580000HFHFWPUSCRBIA0001", "BAName": "Bike Ambulance-SARJAPURA PS " }, "geometry": { "type": "Point", "coordinates": [ 77.788117599802888, 12.854922200145333 ] } },
{ "type": "Feature", "properties": { "OBJECTID": 20, "KGISBAID": 20, "DepartmentCode": "BA20", "KGISVillageID": 15447, "KGISWardID": null, "KGISCode": "29572055428031620000HFHFWPUSCRBIA0017", "BAName": "Bike Ambulance-YELAHANKA PS" }, "geometry": { "type": "Point", "coordinates": [ 77.59400999965051, 13.100480000215999 ] } },
{ "type": "Feature", "properties": { "OBJECTID": 21, "KGISBAID": 21, "DepartmentCode": "BA21", "KGISVillageID": 4989, "KGISWardID": null, "KGISCode": "29557054498030510000HFHFWPUSCRBIA0001", "BAName": "Bike Ambulance-GANDHI CHOWK" }, "geometry": { "type": "Point", "coordinates": [ 75.710031000071368, 16.830170799827936 ] } },
{ "type": "Feature", "properties": { "OBJECTID": 22, "KGISBAID": 22, "DepartmentCode": "BA22", "KGISVillageID": 26170, "KGISWardID": null, "KGISCode": "29575055618031810000HFHFWPUSCRBIA0001", "BAName": "Bike Ambulance-MANGALORE CORPORATION" }, "geometry": { "type": "Point", "coordinates": [ 74.855956799648098, 12.9141416999065 ] } },
{ "type": "Feature", "properties": { "OBJECTID": 23, "KGISBAID": 23, "DepartmentCode": "BA23", "KGISVillageID": 26170, "KGISWardID": null, "KGISCode": "29575055618031810000HFHFWPUSCRBIA0002", "BAName": "Bike Ambulance-THOKKOTTU-ULLALA PS" }, "geometry": { "type": "Point", "coordinates": [ 74.855956799648098, 12.9141416999065 ] } },
{ "type": "Feature", "properties": { "OBJECTID": 24, "KGISBAID": 24, "DepartmentCode": "BA24", "KGISVillageID": 11745, "KGISWardID": null, "KGISCode": "29567055128031270000HFHFWPUSCRBIA0001", "BAName": "Bike Ambulance-MUNICIPAL CORPORATION" }, "geometry": { "type": "Point", "coordinates": [ 75.921758000334052, 14.464408500356672 ] } },
{ "type": "Feature", "properties": { "OBJECTID": 25, "KGISBAID": 25, "DepartmentCode": "BA25", "KGISVillageID": 6683, "KGISWardID": null, "KGISCode": "29562054758030830000HFHFWPUSCRBIA0001", "BAName": "Bike Ambulance-KIMS HUBLI" }, "geometry": { "type": "Point", "coordinates": [ 75.131187399919128, 15.347136100212266 ] } },
{ "type": "Feature", "properties": { "OBJECTID": 26, "KGISBAID": 26, "DepartmentCode": "BA26", "KGISVillageID": 3353, "KGISWardID": null, "KGISCode": "29579055828032070000HFHFWPUSCRBIA0001", "BAName": "Bike Ambulance-SP OFFICE" }, "geometry": { "type": "Point", "coordinates": [ 76.834295699935254, 17.329731000131709 ] } },
{ "type": "Feature", "properties": { "OBJECTID": 27, "KGISBAID": 27, "DepartmentCode": "BA27", "KGISVillageID": 16282, "KGISWardID": null, "KGISCode": "29581055918032210000HFHFWPUSCRBIA0001", "BAName": "Bike Ambulance-KSRTC BUS STAND" }, "geometry": { "type": "Point", "coordinates": [ 78.129098599883662, 13.136214299742765 ] } },
{ "type": "Feature", "properties": { "OBJECTID": 28, "KGISBAID": 28, "DepartmentCode": "BA28", "KGISVillageID": 28460, "KGISWardID": null, "KGISCode": "29577055728031940000HFHFWPUSCRBIA0001", "BAName": "Bike Ambulance-SIDDHARTH NAGAR PS" }, "geometry": { "type": "Point", "coordinates": [ 76.639380499544387, 12.295810400081956 ] } },
{ "type": "Feature", "properties": { "OBJECTID": 29, "KGISBAID": 29, "DepartmentCode": "BA29", "KGISVillageID": 13451, "KGISWardID": null, "KGISCode": "29568055208031370000HFHFWPUSCRBIA0001", "BAName": "Bike Ambulance-TUNGANAGARA PHC" }, "geometry": { "type": "Point", "coordinates": [ 75.568100999814419, 13.92992990009051 ] } },
{ "type": "Feature", "properties": { "OBJECTID": 30, "KGISBAID": 30, "DepartmentCode": "BA30", "KGISVillageID": 19646, "KGISWardID": null, "KGISCode": "29571055378031570000HFHFWPUSCRBIA0001", "BAName": "Bike Ambulance-BATVADE CIRCLE" }, "geometry": { "type": "Point", "coordinates": [ 77.11399839955709, 13.339167700298587 ] } }
]
}
